station_id,name,lat,lon
72,W 52 St & 11 Ave,40.76727216,-73.99392888
79,Franklin St & W Broadway,40.71911552,-74.00666661
82,St James Pl & Pearl St,40.71117416,-74.00016545
83,Atlantic Ave & Fort Greene Pl,40.68382604,-73.97632328
116,W 17 St & 8 Ave,40.74177603,-74.00149746
119,Park Ave & St Edwards St,40.69608941,-73.97803415
120,Lexington Ave & Classon Ave,40.68676793,-73.95928168
127,Barrow St & Hudson St,40.73172428,-74.00674436
128,MacDougal St & Prince St,40.72710258,-74.00297088
137,E 56 St & Madison Ave,40.761628,-73.972924
143,Clinton St & Joralemon St,40.69239502,-73.99337909
144,Nassau St & Navy St,40.69839895,-73.98068914
146,Hudson St & Reade St,40.71625008,-74.0091059
147,Greenwich St & Warren St,40.71542197,-74.01121978
150,E 2 St & Avenue C,40.7208736,-73.98085795
151,Cleveland Pl & Spring St,40.7221037867,-73.9972490072
152,Warren St & Church St,40.71473993,-74.00910627
153,E 40 St & 5 Ave,40.752062307,-73.9816324043
157,Henry St & Atlantic Ave,40.69089272,-73.99612349
160,E 37 St & Lexington Ave,40.748238,-73.978311
161,LaGuardia Pl & W 3 St,40.72917025,-73.99810231
164,E 47 St & 2 Ave,40.75323098,-73.97032517
167,E 39 St & 3 Ave,40.7489006,-73.97604882
168,W 18 St & 6 Ave,40.73971301,-73.99456405
173,Broadway & W 49 St,40.76064679,-73.98442659
174,E 25 St & 1 Ave,40.7381765,-73.97738662
195,Liberty St & Broadway,40.70905623,-74.01043382
212,W 16 St & The High Line,40.74334935,-74.00681753
216,Columbia Heights & Cranberry St,40.70037867,-73.99548059
217,Old Fulton St,40.70277159,-73.99383605
218,Gallatin Pl & Livingston St,40.69028437,-73.98707105
223,W 13 St & 7 Ave,40.73781509,-73.99994661
224,Spruce St & Nassau St,40.71146364,-74.00552427
225,W 14 St & The High Line,40.74195138,-74.00803013
228,E 48 St & 3 Ave,40.7546011,-73.97187886
229,Great Jones St,40.72743423,-73.99379025
232,Cadman Plaza E & Tillary St,40.69597683,-73.99014892
233,Joralemon St & Adams St,40.69246277,-73.98963911
236,St Marks Pl & 2 Ave,40.7284186,-73.98713956
237,E 11 St & 2 Ave,40.73047309,-73.98672378
238,Bank St & Washington St,40.7361967,-74.00859207
239,Willoughby St & Fleet St,40.69196566,-73.9813018
241,DeKalb Ave & S Portland Ave,40.68981035,-73.97493121
242,Flushing Ave & Carlton Ave,40.69788349,-73.97350332
243,Fulton St & Rockwell Pl,40.688226,-73.979382
244,Willoughby Ave & Hall St,40.69196035,-73.96536851
245,Myrtle Ave & St Edwards St,40.69327018,-73.97703874
247,Perry St & Bleecker St,40.73535398,-74.00483091
248,Laight St & Hudson St,40.72185379,-74.00771779
249,Harrison St & Hudson St,40.71870987,-74.0090009
250,Lafayette St & Jersey St,40.72456089,-73.99565293
251,Mott St & Prince St,40.72317958,-73.99480012
252,MacDougal St & Washington Sq,40.73226398,-73.99852205
253,W 13 St & 5 Ave,40.73543934,-73.99453948
254,W 11 St & 6 Ave,40.73532427,-73.99800419
255,NYCBS Depot - SSP,40.646768,-74.01651
257,Lispenard St & Broadway,40.71939226,-74.00247214
258,DeKalb Ave & Vanderbilt Ave,40.68940747,-73.96885458
259,South St & Whitehall St,40.70122128,-74.01234218
260,Broad St & Bridge St,40.70365182,-74.01167797
261,Johnson St & Gold St,40.69474881,-73.98362464
262,Washington Park,40.6917823,-73.9737299
263,Elizabeth St & Hester St,40.71729,-73.996375
264,Maiden Ln & Pearl St,40.70706456,-74.00731853
265,Stanton St & Chrystie St,40.72229346,-73.99147535
266,Avenue D & E 8 St,40.72368361,-73.97574813
267,Broadway & W 36 St,40.75097711,-73.98765428
268,Howard St & Centre St,40.71910537,-73.99973337
270,Adelphi St & Myrtle Ave,40.69308257,-73.97178913
271,Ashland Pl & Hanson Pl,40.68528172,-73.97805813
274,Lafayette Ave & Fort Greene Pl,40.68691865,-73.976682
275,Washington Ave & Greene Ave,40.68650065,-73.96563307
276,Duane St & Greenwich St,40.71748752,-74.0104554
278,Concord St & Bridge St,40.69766564,-73.98476437
279,Peck Slip & Front St,40.707873,-74.00167
280,E 10 St & 5 Ave,40.73331967,-73.99510132
281,Grand Army Plaza & Central Park S,40.7643971,-73.97371465
282,Kent Ave & S 11 St,40.70827295,-73.96834101
284,Greenwich Ave & 8 Ave,40.7390169121,-74.0026376103
285,Broadway & E 14 St,40.73454567,-73.99074142
289,Monroe St & Classon Ave,40.6845683,-73.95881081
290,2 Ave & E 58 St,40.76020258,-73.96478473
291,Madison St & Montgomery St,40.713126,-73.984844
293,Lafayette St & E 8 St,40.73028666,-73.9907647
294,Washington Square E,40.73049393,-73.9957214
295,Pike St & E Broadway,40.71406667,-73.99293911
296,Division St & Bowery,40.71413089,-73.9970468
297,E 15 St & 3 Ave,40.734232,-73.986923
298,3 Ave & Schermerhorn St,40.68683208,-73.9796772
300,Shevchenko Pl & E 7 St,40.728145,-73.990214
301,E 2 St & Avenue B,40.72217444,-73.98368779
302,Avenue D & E 3 St,40.72082834,-73.97793172
303,Mercer St & Spring St,40.72362738,-73.99949601
304,Broadway & Battery Pl,40.70463334,-74.01361706
305,E 58 St & 3 Ave,40.76095756,-73.96724467
306,Cliff St & Fulton St,40.70823502,-74.00530063
307,Canal St & Rutgers St,40.71427487,-73.98990025
308,St James Pl & Oliver St,40.71307916,-73.99851193
309,Murray St & West St,40.7149787,-74.013012
310,State St & Smith St,40.68926942,-73.98912867
311,Norfolk St & Broome St,40.7172274,-73.98802084
312,Allen St & E Houston St,40.722055,-73.989111
313,Washington Ave & Park Ave,40.69610226,-73.96751037
314,Cadman Plaza West & Montague St,40.69383,-73.990539
315,South St & Gouverneur Ln,40.70355377,-74.00670227
316,Fulton St & William St,40.70955958,-74.00653609
317,E 6 St & Avenue B,40.72453734,-73.98185424
318,E 43 St & Vanderbilt Ave,40.75320159,-73.9779874
319,Fulton St & Broadway,40.711066,-74.009447
320,Leonard St & Church St,40.717571,-74.005549
321,Cadman Plaza E & Red Cross Pl,40.69991755,-73.98971773
322,Clinton St & Tillary St,40.696192,-73.991218
323,Lawrence St & Willoughby St,40.69236178,-73.98631746
324,DeKalb Ave & Hudson Ave,40.689888,-73.981013
325,E 19 St & 3 Ave,40.73624527,-73.98473765
326,E 11 St & 1 Ave,40.72953837,-73.98426726
327,Vesey Pl & River Terrace,40.7153379,-74.01658354
328,Watts St & Greenwich St,40.72405549,-74.00965965
329,Greenwich St & N Moore St,40.72043411,-74.01020609
330,Reade St & Broadway,40.71450451,-74.00562789
331,Pike St & Monroe St,40.71173107,-73.99193043
332,Cherry St,40.71219906,-73.97948148
334,W 20 St & 7 Ave,40.74238787,-73.99726235
335,Washington Pl & Broadway,40.72903917,-73.99404649
336,Sullivan St & Washington Sq,40.73047747,-73.99906065
337,Old Slip & Front St,40.7037992,-74.00838676
339,Avenue D & E 12 St,40.72580614,-73.97422494
340,Madison St & Clinton St,40.71269042,-73.98776323
341,Stanton St & Mangin St,40.71782143,-73.97628939
342,Columbia St & Rivington St,40.71739973,-73.98016555
343,Clinton Ave & Flushing Ave,40.69794,-73.96986848
344,Monroe St & Bedford Ave,40.6851443,-73.95380904
345,W 13 St & 6 Ave,40.73649403,-73.99704374
346,Bank St & Hudson St,40.73652889,-74.00618026
347,Greenwich St & W Houston St,40.728846,-74.008591
348,W Broadway & Spring St,40.72490985,-74.00154702
349,Rivington St & Ridge St,40.71850211,-73.98329859
350,Clinton St & Grand St,40.71559509,-73.9870295
351,Front St & Maiden Ln,40.70530954,-74.00612572
352,W 56 St & 6 Ave,40.76340613,-73.97722479
353,S Portland Ave & Hanson Pl,40.68539567,-73.97431458
354,Emerson Pl & Myrtle Ave,40.69363137,-73.96223558
355,Bayard St & Baxter St,40.71602118,-73.99974372
356,Bialystoker Pl & Delancey St,40.71622644,-73.98261206
357,E 11 St & Broadway,40.73261787,-73.99158043
358,Christopher St & Greenwich St,40.73291553,-74.00711384
359,E 47 St & Park Ave,40.75510267,-73.97498696
360,William St & Pine St,40.70717936,-74.00887308
361,Allen St & Hester St,40.71605866,-73.99190759
362,Broadway & W 37 St,40.75172632,-73.98753523
363,West Thames St,40.70834698,-74.01713445
364,Lafayette Ave & Classon Ave,40.68900443,-73.96023854
365,Fulton St & Grand Ave,40.68223166,-73.9614583
366,Clinton Ave & Myrtle Ave,40.693261,-73.968896
367,E 53 St & Lexington Ave,40.75828065,-73.97069431
368,Carmine St & 6 Ave,40.73038599,-74.00214988
369,Washington Pl & 6 Ave,40.73224119,-74.00026394
372,Franklin Ave & Myrtle Ave,40.694528,-73.958089
373,Willoughby Ave & Walworth St,40.69331716,-73.95381995
375,Mercer St & Bleecker St,40.72679454,-73.99695094
376,John St & William St,40.70862144,-74.00722156
377,6 Ave & Canal St,40.72243797,-74.00566443
379,W 31 St & 7 Ave,40.749156,-73.9916
380,W 4 St & 7 Ave S,40.73401143,-74.00293877
382,University Pl & E 14 St,40.73492695,-73.99200509
383,Greenwich Ave & Charles St,40.735238,-74.000271
384,Fulton St & Washington Ave,40.683048,-73.964915
385,E 55 St & 2 Ave,40.75797322,-73.96603308
386,Centre St & Worth St,40.71494807,-74.00234482
387,Centre St & Chambers St,40.71273266,-74.0046073
388,W 26 St & 10 Ave,40.749717753,-74.002950346
389,Broadway & Berry St,40.71044554,-73.96525063
390,Duffield St & Willoughby St,40.69221589,-73.9842844
391,Clark St & Henry St,40.69760127,-73.99344559
392,Jay St & Tech Pl,40.695065,-73.987167
393,E 5 St & Avenue C,40.72299208,-73.97995466
394,E 9 St & Avenue C,40.72521311,-73.97768752
395,Bond St & Schermerhorn St,40.68807003,-73.98410637
396,Lefferts Pl & Franklin Ave,40.680342423,-73.9557689392
397,Fulton St & Clermont Ave,40.68415748,-73.96922273
398,Atlantic Ave & Furman St,40.69165183,-73.9999786
399,Lafayette Ave & St James Pl,40.68851534,-73.9647628
400,Pitt St & Stanton St,40.71926081,-73.98178024
401,Allen St & Rivington St,40.72019576,-73.98997825
402,Broadway & E 22 St,40.7403432,-73.98955109
403,E 2 St & 2 Ave,40.72502876,-73.99069656
404,9 Ave & W 14 St,40.7405826,-74.00550867
405,Washington St & Gansevoort St,40.739323,-74.008119
406,Hicks St & Montague St,40.69512845,-73.99595065
407,Henry St & Poplar St,40.700469,-73.991454
408,Market St & Cherry St,40.71076228,-73.99400398
409,DeKalb Ave & Skillman St,40.6906495,-73.95643107
410,Suffolk St & Stanton St,40.72066442,-73.98517977
411,E 6 St & Avenue D,40.72228087,-73.97668709
412,Forsyth St & Canal St,40.7158155,-73.99422366
414,Pearl St & Anchorage Pl,40.70281858,-73.98765762
415,Pearl St & Hanover Square,40.7047177,-74.00926027
416,Cumberland St & Lafayette Ave,40.68753406,-73.97265183
417,Barclay St & Church St,40.71291224,-74.01020234
418,Front St & Gold St,40.70224,-73.982578
419,Carlton Ave & Park Ave,40.69580705,-73.97355569
420,Clermont Ave & Lafayette Ave,40.68764484,-73.96968902
421,Clermont Ave & Park Ave,40.69573398,-73.97129668
422,W 59 St & 10 Ave,40.770513,-73.988038
423,W 54 St & 9 Ave,40.76584941,-73.98690506
426,West St & Chambers St,40.71754834,-74.01322069
427,Bus Slip & State St,40.701907,-74.013942
428,E 3 St & 1 Ave,40.72467721,-73.98783413
430,York St & Jay St,40.7014851,-73.98656928
431,Hanover Pl & Livingston St,40.68864636,-73.98263429
432,E 7 St & Avenue A,40.72621788,-73.98379855
433,E 13 St & Avenue A,40.72955361,-73.98057249
434,9 Ave & W 18 St,40.74317449,-74.00366443
435,W 21 St & 6 Ave,40.74173969,-73.99415556
436,Hancock St & Bedford Ave,40.68216564,-73.95399026
437,Macon St & Nostrand Ave,40.6809833854,-73.9500479759
438,St Marks Pl & 1 Ave,40.72779126,-73.98564945
439,E 4 St & 2 Ave,40.7262807,-73.98978041
440,E 45 St & 3 Ave,40.75255434,-73.97282625
441,E 52 St & 2 Ave,40.756014,-73.967416
442,W 27 St & 7 Ave,40.746647,-73.993915
443,Bedford Ave & S 9 St,40.70853074,-73.96408963
444,Broadway & W 24 St,40.7423543,-73.98915076
445,E 10 St & Avenue A,40.72740794,-73.98142006
446,W 24 St & 7 Ave,40.74487634,-73.99529885
447,8 Ave & W 52 St,40.76370739,-73.9851615
448,W 37 St & 10 Ave,40.75660359,-73.9979009
449,W 52 St & 9 Ave,40.76461837,-73.98789473
450,W 49 St & 8 Ave,40.76227205,-73.98788205
453,W 22 St & 8 Ave,40.74475148,-73.99915362
454,E 51 St & 1 Ave,40.75455731,-73.96592976
455,1 Ave & E 44 St,40.75001986,-73.96905301
456,E 53 St & Madison Ave,40.7597108,-73.97402311
457,Broadway & W 58 St,40.76695317,-73.98169333
458,11 Ave & W 27 St,40.751396,-74.005226
459,W 20 St & 11 Ave,40.746745,-74.007756
460,S 4 St & Wythe Ave,40.71285887,-73.96590294
461,E 20 St & 2 Ave,40.73587678,-73.98205027
462,W 22 St & 10 Ave,40.74691959,-74.00451887
463,9 Ave & W 16 St,40.74206539,-74.00443172
464,E 56 St & 3 Ave,40.75934501,-73.96759673
465,Broadway & W 41 St,40.75513557,-73.98658032
466,W 25 St & 6 Ave,40.74395411,-73.99144871
467,Dean St & 4 Ave,40.68312489,-73.97895137
468,Broadway & W 55 St,40.7652654,-73.98192338
469,Broadway & W 53 St,40.76344058,-73.98268129
470,W 20 St & 8 Ave,40.74345335,-74.00004031
471,Grand St & Havemeyer St,40.71286844,-73.95698119
472,E 32 St & Park Ave,40.7457121,-73.98194829
473,Rivington St & Chrystie St,40.72110063,-73.9919254
474,5 Ave & E 29 St,40.7451677,-73.98683077
475,E 16 St & Irving Pl,40.73524276,-73.98758561
476,E 31 St & 3 Ave,40.74394314,-73.97966069
477,W 41 St & 8 Ave,40.75640548,-73.9900262
478,11 Ave & W 41 St,40.76030096,-73.99884222
479,9 Ave & W 45 St,40.76019252,-73.9912551
480,W 53 St & 10 Ave,40.76669671,-73.99061728
481,S 3 St & Bedford Ave,40.71260486,-73.96264403
482,W 15 St & 7 Ave,40.73935542,-73.99931783
483,E 12 St & 3 Ave,40.73223272,-73.98889957
484,W 44 St & 5 Ave,40.75500254,-73.98014437
485,W 37 St & 5 Ave,40.75038009,-73.98338988
486,Broadway & W 29 St,40.7462009,-73.98855723
487,E 20 St & FDR Drive,40.73314259,-73.97573881
488,W 39 St & 9 Ave,40.75645824,-73.99372222
489,10 Ave & W 28 St,40.75066386,-74.00176802
490,8 Ave & W 33 St,40.751551,-73.993934
491,E 24 St & Park Ave S,40.74096374,-73.98602213
492,W 33 St & 7 Ave,40.75019995,-73.99093085
493,W 45 St & 6 Ave,40.7568001,-73.98291153
494,W 26 St & 8 Ave,40.74734825,-73.99723551
495,W 47 St & 10 Ave,40.76269882,-73.99301222
496,E 16 St & 5 Ave,40.73726186,-73.99238967
497,E 17 St & Broadway,40.73704984,-73.99009296
498,Broadway & W 32 St,40.74854862,-73.98808416
499,Broadway & W 60 St,40.76915505,-73.98191841
500,Broadway & W 51 St,40.76228826,-73.98336183
501,FDR Drive & E 35 St,40.744219,-73.97121214
502,Henry St & Grand St,40.714215,-73.981346
503,E 20 St & Park Ave,40.73827428,-73.98751968
504,1 Ave & E 15 St,40.73221853,-73.98165557
505,6 Ave & W 33 St,40.74901271,-73.98848395
507,E 25 St & 2 Ave,40.73912601,-73.97973776
508,W 46 St & 11 Ave,40.76341379,-73.99667444
509,9 Ave & W 22 St,40.7454973,-74.00197139
510,W 51 St & 6 Ave,40.7606597,-73.98042047
511,E 14 St & Avenue B,40.72938685,-73.97772429
512,W 29 St & 9 Ave,40.7500727,-73.99839279
513,W 56 St & 10 Ave,40.768254,-73.988639
514,12 Ave & W 40 St,40.76087502,-74.00277668
515,W 43 St & 10 Ave,40.76009437,-73.99461843
516,E 47 St & 1 Ave,40.75206862,-73.96784384
517,Pershing Square South,40.751581,-73.97791
518,E 39 St & 2 Ave,40.74780373,-73.9734419
519,Pershing Square North,40.751873,-73.977706
520,W 52 St & 5 Ave,40.75992262,-73.97648516
521,8 Ave & W 31 St,40.7509673487,-73.9944420755
522,E 51 St & Lexington Ave,40.75714758,-73.97207836
523,W 38 St & 8 Ave,40.75466591,-73.99138152
524,W 43 St & 6 Ave,40.75527307,-73.98316936
525,W 34 St & 11 Ave,40.75594159,-74.0021163
526,E 33 St & 5 Ave,40.74765947,-73.98490707
527,E 33 St & 2 Ave,40.744023,-73.976056
528,2 Ave & E 31 St,40.74290902,-73.97706058
529,W 42 St & 8 Ave,40.7575699,-73.99098507
530,11 Ave & W 59 St,40.771522,-73.990541
531,Forsyth St & Broome St,40.71893904,-73.99266288
532,S 5 Pl & S 4 St,40.710451,-73.960876
533,Broadway & W 39 St,40.75299641,-73.98721619
534,Water - Whitehall Plaza,40.70255065,-74.0127234
536,1 Ave & E 30 St,40.74144387,-73.97536082
537,Lexington Ave & E 24 St,40.74025878,-73.98409214
538,E 48 St & Madison Ave,40.75666,-73.976684
539,Metropolitan Ave & Bedford Ave,40.71534825,-73.96024116
540,Lexington Ave & E 29 St,40.7431155538,-73.9821535349
545,E 23 St & 1 Ave,40.736502,-73.97809472
546,E 30 St & Park Ave S,40.74444921,-73.98303529
2000,Front St & Washington St,40.70255088,-73.98940236
2001,Sands St & Navy St,40.699773,-73.979927
2002,Wythe Ave & Metropolitan Ave,40.716887,-73.963198
2003,1 Ave & E 18 St,40.733812192,-73.9805442095
2004,6 Ave & Broome St,40.724399,-74.004704
2005,Railroad Ave & Kay Ave,40.70531194,-73.97100056
2006,Central Park S & 6 Ave,40.76590936,-73.97634151
2008,Little West St & 1 Pl,40.70569254,-74.01677685
2009,Catherine St & Monroe St,40.71117444,-73.99682619
2010,Grand St & Greene St,40.72165481,-74.00234737
2012,E 27 St & 1 Ave,40.739445,-73.976806
2017,E 43 St & 2 Ave,40.75022392,-73.97121414
2021,W 45 St & 8 Ave,40.75929124,-73.98859651
2022,E 59 St & Sutton Pl,40.75849116,-73.95920622
2023,E 55 St & Lexington Ave,40.75968085,-73.97031366
3002,South End Ave & Liberty St,40.711512,-74.015756
3014,E.T. Bike-In Movie Valet Station ,40.722852,-73.959114
3016,Mobile 01,40.7710518564,-73.9643383026
3017,NYCBS Depot - FAR,40.751483,-73.996764
3019,NYCBS Depot - DEL,40.716633,-73.981933
3039,NYCBS Depot - DYR,40.7590880907,-73.9937505128
3041,Kingston Ave & Herkimer St,40.67890679,-73.94142771
3042,Fulton St & Utica Ave,40.6794268,-73.9298911
3043,Lewis Ave & Decatur St,40.6814598,-73.934903
3044,Albany Ave & Fulton St,40.6800105,-73.938475
3046,Marcus Garvey Blvd & Macon St,40.682601,-73.938037
3047,Halsey St & Tompkins Ave,40.6823687,-73.944118
3048,Putnam Ave & Nostrand Ave,40.68402,-73.94977
3049,Cambridge Pl & Gates Ave,40.68488,-73.96304
3050,Putnam Ave & Throop Ave,40.6851532,-73.94111
3052,Lewis Ave & Madison St,40.686312,-73.935775
3053,Marcy Ave & Lafayette Ave,40.6900815,-73.947915
3054,Greene Ave & Throop Ave,40.6894932,-73.942061
3055,Greene Ave & Nostrand Ave,40.6883337,-73.950916
3056,Kosciuszko St & Nostrand Ave,40.69072549,-73.95133465
3057,Kosciuszko St & Tompkins Ave,40.69128258,-73.9452416
3058,Lewis Ave & Kosciuszko St,40.69237074,-73.93705428
3059,Pulaski St & Marcus Garvey Blvd,40.6933982,-73.939877
3060,Willoughby Ave & Tompkins Ave,40.69425403,-73.94626915
3061,Throop Ave & Myrtle Ave,40.69622937,-73.94371094
3062,Myrtle Ave & Marcy Ave,40.69539817,-73.94954908
3063,Nostrand Ave & Myrtle Ave,40.69527008,-73.95238108
3064,Myrtle Ave & Lewis Ave,40.69681963,-73.93756926
3065,Union Ave & Wallabout St,40.70029511,-73.95032283
3066,Tompkins Ave & Hopkins St,40.69957608,-73.94708417
3067,Broadway & Whipple St,40.7016657,-73.9437303
3068,Humboldt St & Varet St,40.7031724,-73.940636
3069,Lorimer St & Broadway,40.70411791,-73.94818595
3070,McKibbin St & Manhattan Ave,40.70510918,-73.94407279
3071,Boerum St & Broadway,40.70538077,-73.94976519
3072,Leonard St & Boerum St,40.70583339,-73.94644578
3073,Division Ave & Hooper St,40.70691254,-73.95441667
3074,Montrose Ave & Bushwick Ave,40.70767788,-73.94016171
3075,Division Ave & Marcy Ave,40.70708701,-73.95796783
3076,Scholes St & Manhattan Ave,40.70870368,-73.9448625
3077,Stagg St & Union Ave,40.70877084,-73.95095259
3078,Broadway & Roebling St,40.70925562,-73.95982218
3079,Leonard St & Grand St,40.71103537,-73.94714303
3080,S 4 St & Rodney St,40.70934,-73.95608
3081,Graham Ave & Grand St,40.711863,-73.944024
3082,Hope St & Union Ave,40.71167351,-73.95141312
3083,Bushwick Ave & Powers St,40.71247661,-73.94100005
3084,Devoe St & Leonard St,40.71348658,-73.94792458
3085,Roebling St & N 4 St,40.71469,-73.95739
3086,Graham Ave & Conselyea St,40.715143,-73.944507
3087,Metropolitan Ave & Meeker Ave,40.71413311,-73.95234386
3088,Union Ave & Jackson St,40.7160751,-73.952029
3089,Leonard St & Meeker Ave,40.7173184039,-73.9482021332
3090,N 8 St & Driggs Ave,40.71774592,-73.95600096
3091,Frost St & Meeker St,40.71764,-73.94882
3092,Berry St & N 8 St,40.7190095,-73.95852515
3093,N 6 St & Bedford Ave,40.71745169,-73.95850939
3094,Graham Ave & Withers St,40.7169811,-73.94485918
3095,Graham Ave & Herbert St,40.71929301,-73.94500379
3096,Union Ave & N 12 St,40.71924,-73.95242
3097,N Henry St & Richardson St,40.71921585,-73.9424469
3098,Leonard St & Bayard St,40.71928,-73.94861
3099,Leonard St & Manhattan Ave,40.7215224034,-73.948982656
3100,Nassau Ave & Newell St,40.7248125644,-73.9475262165
3101,N 12 St & Bedford Ave,40.72079821,-73.95484712
3102,Driggs Ave & Lorimer St,40.72179134,-73.9504154
3103,N 11 St & Wythe Ave,40.72153267,-73.95782357
3104,Kent Ave & N 7 St,40.72057658,-73.96150225
3105,N 15 St & Wythe Ave,40.724055,-73.955736
3106,Driggs Ave & N Henry St,40.72325,-73.94308
3107,Bedford Ave & Nassau Ave,40.72311651,-73.95212324
3108,Nassau Ave & Russell St,40.72557,-73.94434
3109,Banker St & Meserole Ave,40.72606,-73.95621
3110,Meserole Ave & Manhattan Ave,40.72708584,-73.95299117
3111,Norman Ave & Leonard St,40.7258483,-73.95064893
3112,Milton St & Franklin St,40.72906,-73.95779
3113,Greenpoint Ave & Manhattan Ave,40.73026,-73.95394
3114,India St & East River,40.73165141,-73.96161892
3115,India St & Manhattan Ave,40.73232194,-73.9550858
3116,Huron St & Franklin St,40.73266,-73.95826
3117,Franklin St & Dupont St,40.73564,-73.95866
3118,McGuinness Blvd & Eagle St,40.73555,-73.95284
3119,Vernon Blvd & 50 Ave,40.74232744,-73.95411749
3120,Center BlvdÂ & Borden Ave,40.74161,-73.96044
3121,Jackson Ave & 46 Rd,40.74524768,-73.94733276
3122,48 Ave & 5 St,40.7443632871,-73.955873251
3123,31 St & Thomson Ave,40.74469738,-73.93540375
3124,46 Ave & 5 St,40.74731,-73.95451
3125,45 Rd & 11 St,40.74708586,-73.94977234
3126,44 Dr & Jackson Ave,40.74718234,-73.9432635
3127,9 St & 44 Rd,40.74966,-73.9521
3128,21 St & 43 Ave,40.75052534,-73.94594845
3129,Queens Plaza North & Crescent St,40.75110165,-73.94073717
3130,21 St & Queens Plaza North,40.75325964,-73.94335788
3131,E 68 St & 3 Ave,40.7671284035,-73.9622461796
3132,E 59 St & Madison Ave,40.76350532,-73.97109243
3133,E 67 St & Lexington Ave,40.7673425914,-73.9648586512
3134,3 Ave & E 62 St,40.76312584,-73.96526895
3135,E 75 St & 3 Ave,40.77112927,-73.95772297
3136,5 Ave & E 63 St,40.76650452,-73.97147595
3137,5 Ave & E 73 St,40.77282817,-73.96685276
3138,E 77 St & Park Ave,40.774405455,-73.9617526531
3139,E 72 St & Park Ave,40.77122923,-73.96432627
3140,1 Ave & E 78 St,40.77140426,-73.9535166
3141,1 Ave & E 68 St,40.76500525,-73.95818491
3142,1 Ave & E 62 St,40.7612274,-73.96094022
3143,5 Ave & E 78 St,40.7768286344,-73.9638876915
3144,E 81 St & Park Ave,40.77677702,-73.9590097
3145,E 84 St & Park Ave,40.77862688,-73.95772073
3146,E 81 St & 3 Ave,40.77573034,-73.9567526
3147,E 85 St & 3 Ave,40.77801203,-73.95407149
3148,E 84 St & 1 Ave,40.77565541,-73.95068615
3149,E 82 St & 2 Ave,40.77517793,-73.95324922
3150,E 85 St & York Ave,40.77536905,-73.94803392
3151,E 81 St & York Ave,40.7728384,-73.94989233
3153,E 71 St & 2 Ave,40.7681754674,-73.9591026306
3154,E 77 St & 3 Ave,40.77314236,-73.95856158
3155,Lexington Ave & E 63 St,40.76440023,-73.96648977
3156,E 72 St & York Ave,40.76663814,-73.95348296
3157,East End Ave & E 86 St,40.77518615,-73.94446054
3158,W 63 St & Broadway,40.77163851,-73.98261428
3159,W 67 St & Broadway,40.77492513,-73.98266566
3160,Central Park West & W 76 St,40.77896784,-73.97374737
3161,W 76 St & Columbus Ave,40.7801839724,-73.9772853255
3162,W 78 St & Broadway,40.78339981,-73.98093133
3163,Central Park West & W 68 St,40.7734066,-73.97782542
3164,Columbus Ave & W 72 St,40.7770575,-73.97898475
3165,Central Park West & W 72 St,40.7757937668,-73.9762057364
3166,Riverside Dr & W 72 St,40.7805779901,-73.9856243134
3167,Amsterdam Ave & W 73 St,40.7796680901,-73.9809304476
3168,Central Park West & W 85 St,40.78472675,-73.96961715
3169,Riverside Dr & W 82 St,40.78720869,-73.98128127
3170,W 84 St & Columbus Ave,40.78499979,-73.97283406
3171,Amsterdam Ave & W 82 St,40.78524672,-73.97667321
3172,W 74 St & Columbus Ave,40.7785669,-73.97754961
3173,Riverside Blvd & W 67 St,40.7775070275,-73.9888858795
3175,W 70 St & Amsterdam Ave,40.77748046,-73.98288594
3176,W 64 St & West End Ave,40.77452835,-73.98753759
3177,W 84 St & Broadway,40.7867947,-73.977112
3178,Riverside Dr & W 78 St,40.78414472,-73.98362492
3179,Park Ave & Marcus Garvey Blvd,40.698617,-73.941342
3180,Brooklyn Bridge Park - Pier 2,40.69878,-73.99712
3181,Soissons Landing,40.692609,-74.016398
3182,Yankee Ferry Terminal,40.686931,-74.016966
3183,Exchange Place,40.7162469,-74.0334588
3184,Paulus Hook,40.7141454,-74.0335519
3185,City Hall,40.7177325,-74.043845
3186,Grove St PATH,40.7192789,-74.0424515
3187,Warren St,40.7211236,-74.03805095
3188,NJCU,40.7101087,-74.0858489
3189,West Side Light Rail,40.714402,-74.0887723
3190,Garfield Ave Light Rail,40.7108044,-74.0714882
3191,Union St,40.7182113,-74.0836394
3192,Liberty Light Rail,40.7112423,-74.0557013
3193,Lincoln Park,40.7244188,-74.0780383
3194,McGinley Square,40.7256033,-74.06763
3195,Sip Ave,40.7309459,-74.0638906
3196,Riverview Park,40.7443187,-74.0439909
3197,North St,40.752559,-74.044725
3198,Heights Elevator,40.7485362,-74.0403131
3199,Newport Pkwy,40.7287448,-74.0321082
3200,MLK Light Rail,40.7111305,-74.0788855
3201,Dey St,40.737711,-74.066921
3202,Newport PATH,40.7272235,-74.0337589
3203,Hamilton Park,40.727595966,-74.044247311
3205,JC Medical Center,40.7165271,-74.049425
3206,Hilltop,40.7311689,-74.0575736
3207,Oakland Ave,40.7376037,-74.0524783
3209,Brunswick St,40.7241765,-74.0506564
3210,Pershing Field,40.742677141,-74.051788633
3211,Newark Ave,40.72152515,-74.046304543
3212,Christ Hospital,40.734785818,-74.050443636
3213,Van Vorst Park,40.71848892,-74.047726625
3214,Essex Light Rail,40.7127742,-74.0364857
3215,Central Ave,40.7467299,-74.0492509
3216,Columbia Park,40.6970299,-74.0969366
3217,Bayside Park,40.698650544,-74.082079678
3219,NYCBS Depot - STY,40.729193,-73.976655
3220,5 Corners Library,40.73496102,-74.0595030785
3221,47 Ave & 31 St,40.743,-73.93561
3222,Hanson Pl & St Felix St,40.6851595999,-73.9771136642
3223,E 55 St & 3 Ave,40.7589965596,-73.9686539769
3224,W 13 St & Hudson St,40.739973541,-74.005138725
3225,Baldwin at Montgomery,40.7236589,-74.0641943
3226,W 82 St & Central Park West,40.78275,-73.97137
3229,Marcy Ave & MacDonough St,40.6806176846,-73.946249485
3230,Penn Station Valet,40.751283597,-73.9969244599
3231,E 67 St & Park Ave,40.7678008015,-73.9659208059
3232,Bond St & Fulton St,40.6896218879,-73.9830426872
3233,E 48 St & 5 Ave,40.7572456791,-73.9780591428
3234,E 40 St & Madison Ave,40.7515936845,-73.9804315567
3235,E 41 St & Madison Ave,40.7521652806,-73.979921937
3236,PABT Valet,40.758984814,-73.9937996864
3237,21 St & 41 Ave,40.7538334344,-73.9426767826
3238,E 80 St & 2 Ave,40.7739139024,-73.9543953538
3241,Monroe St & Tompkins Ave,40.686203,-73.944694
3242,Schermerhorn St & Court St,40.6910292568,-73.9918336272
3243,E 58 St & 1 Ave,40.7589238638,-73.9622622728
3244,University Pl & E 8 St,40.7314372409,-73.9949034154
3246,Montague St & Clinton St,40.6942811414,-73.9923003316
3249,Verona Pl & Fulton St,40.680356084,-73.9476791024
