station_id,name,lat,lon,bikes_out,bikes_in,color
79,Franklin St & W Broadway,40.71911552,-74.00666661,0,1,#032414
82,St James Pl & Pearl St,40.71117416,-74.00016545,1,0,#3C4CC8
116,W 17 St & 8 Ave,40.74177603,-74.00149746,0,1,#2095DC
127,Barrow St & Hudson St,40.73172428,-74.00674436,1,0,#D9B1B1
137,E 56 St & Madison Ave,40.761628,-73.972924,0,2,#585DB6
143,Clinton St & Joralemon St,40.69239502,-73.99337909,0,2,#D824F0
146,Hudson St & Reade St,40.71625008,-74.0091059,1,0,#33E9B3
147,Greenwich St & Warren St,40.71542197,-74.01121978,0,3,#81657E
151,Cleveland Pl & Spring St,40.7221037867,-73.9972490072,1,1,#A13B17
152,Warren St & Church St,40.71473993,-74.00910627,0,1,#F25807
160,E 37 St & Lexington Ave,40.748238,-73.978311,1,0,#D886FC
161,LaGuardia Pl & W 3 St,40.72917025,-73.99810231,1,1,#445BC5
164,E 47 St & 2 Ave,40.75323098,-73.97032517,1,0,#1C85C9
167,E 39 St & 3 Ave,40.7489006,-73.97604882,1,1,#93D696
168,W 18 St & 6 Ave,40.73971301,-73.99456405,1,1,#0C7D9F
173,Broadway & W 49 St,40.76064679,-73.98442659,0,4,#1CD6EF
195,Liberty St & Broadway,40.70905623,-74.01043382,0,1,#3B8821
212,W 16 St & The High Line,40.74334935,-74.00681753,1,0,#E715F8
223,W 13 St & 7 Ave,40.73781509,-73.99994661,1,2,#86CD8C
224,Spruce St & Nassau St,40.71146364,-74.00552427,0,1,#B69C10
225,W 14 St & The High Line,40.74195138,-74.00803013,2,1,#E40958
228,E 48 St & 3 Ave,40.7546011,-73.97187886,0,2,#C1AAB4
229,Great Jones St,40.72743423,-73.99379025,1,3,#4DDFC7
236,St Marks Pl & 2 Ave,40.7284186,-73.98713956,1,0,#3F84A6
237,E 11 St & 2 Ave,40.73047309,-73.98672378,2,0,#602E8B
238,Bank St & Washington St,40.7361967,-74.00859207,1,0,#CFCF1C
242,Flushing Ave & Carlton Ave,40.69788349,-73.97350332,0,1,#B74B13
243,Fulton St & Rockwell Pl,40.688226,-73.979382,0,1,#B486D0
247,Perry St & Bleecker St,40.73535398,-74.00483091,1,0,#04726E
249,Harrison St & Hudson St,40.71870987,-74.0090009,0,1,#777410
250,Lafayette St & Jersey St,40.72456089,-73.99565293,0,2,#838ED4
251,Mott St & Prince St,40.72317958,-73.99480012,1,1,#FA77F0
252,MacDougal St & Washington Sq,40.73226398,-73.99852205,1,0,#A30702
253,W 13 St & 5 Ave,40.73543934,-73.99453948,0,2,#ED4CA2
257,Lispenard St & Broadway,40.71939226,-74.00247214,1,0,#ECB73F
259,South St & Whitehall St,40.70122128,-74.01234218,1,0,#134E9A
261,Johnson St & Gold St,40.69474881,-73.98362464,1,0,#3A14FA
264,Maiden Ln & Pearl St,40.70706456,-74.00731853,0,1,#A7C8E6
266,Avenue D & E 8 St,40.72368361,-73.97574813,1,0,#B7225F
267,Broadway & W 36 St,40.75097711,-73.98765428,1,0,#63319E
270,Adelphi St & Myrtle Ave,40.69308257,-73.97178913,1,0,#1361D4
274,Lafayette Ave & Fort Greene Pl,40.68691865,-73.976682,1,0,#30878B
275,Washington Ave & Greene Ave,40.68650065,-73.96563307,2,0,#D69013
276,Duane St & Greenwich St,40.71748752,-74.0104554,3,0,#11B990
279,Peck Slip & Front St,40.707873,-74.00167,1,0,#6AF1EA
280,E 10 St & 5 Ave,40.73331967,-73.99510132,1,0,#426BA6
281,Grand Army Plaza & Central Park S,40.7643971,-73.97371465,2,2,#B3D460
284,Greenwich Ave & 8 Ave,40.7390169121,-74.0026376103,3,1,#59F154
285,Broadway & E 14 St,40.73454567,-73.99074142,2,1,#4EBB7D
290,2 Ave & E 58 St,40.76020258,-73.96478473,2,0,#0A0A6F
293,Lafayette St & E 8 St,40.73028666,-73.9907647,2,4,#797DA2
297,E 15 St & 3 Ave,40.734232,-73.986923,1,3,#D79D4E
300,Shevchenko Pl & E 7 St,40.728145,-73.990214,2,1,#5840FD
301,E 2 St & Avenue B,40.72217444,-73.98368779,3,1,#0C5743
304,Broadway & Battery Pl,40.70463334,-74.01361706,0,1,#6DB78A
305,E 58 St & 3 Ave,40.76095756,-73.96724467,0,4,#25B386
309,Murray St & West St,40.7149787,-74.013012,0,2,#FDB4FA
312,Allen St & E Houston St,40.722055,-73.989111,0,2,#2F1907
319,Fulton St & Broadway,40.711066,-74.009447,1,0,#3F8DF0
320,Leonard St & Church St,40.717571,-74.005549,1,1,#16188C
321,Cadman Plaza E & Red Cross Pl,40.69991755,-73.98971773,1,0,#58F0B2
322,Clinton St & Tillary St,40.696192,-73.991218,0,1,#81E380
323,Lawrence St & Willoughby St,40.69236178,-73.98631746,0,1,#F4E0F1
324,DeKalb Ave & Hudson Ave,40.689888,-73.981013,0,3,#B532C8
326,E 11 St & 1 Ave,40.72953837,-73.98426726,1,0,#F1D736
327,Vesey Pl & River Terrace,40.7153379,-74.01658354,0,4,#0187A2
328,Watts St & Greenwich St,40.72405549,-74.00965965,6,0,#90DE3B
329,Greenwich St & N Moore St,40.72043411,-74.01020609,0,4,#AFE817
330,Reade St & Broadway,40.71450451,-74.00562789,1,1,#5180E2
331,Pike St & Monroe St,40.71173107,-73.99193043,0,1,#724FE4
334,W 20 St & 7 Ave,40.74238787,-73.99726235,0,2,#5902C9
335,Washington Pl & Broadway,40.72903917,-73.99404649,0,1,#C0DEEF
340,Madison St & Clinton St,40.71269042,-73.98776323,1,0,#F768C7
344,Monroe St & Bedford Ave,40.6851443,-73.95380904,0,1,#41DD8C
345,W 13 St & 6 Ave,40.73649403,-73.99704374,0,1,#76D497
346,Bank St & Hudson St,40.73652889,-74.00618026,3,0,#AC4E50
347,Greenwich St & W Houston St,40.728846,-74.008591,1,1,#320494
348,W Broadway & Spring St,40.72490985,-74.00154702,3,0,#820080
351,Front St & Maiden Ln,40.70530954,-74.00612572,0,1,#ECD59F
352,W 56 St & 6 Ave,40.76340613,-73.97722479,0,2,#BF0AE7
354,Emerson Pl & Myrtle Ave,40.69363137,-73.96223558,1,0,#E742BB
355,Bayard St & Baxter St,40.71602118,-73.99974372,2,0,#FD6042
358,Christopher St & Greenwich St,40.73291553,-74.00711384,0,2,#BD6D4F
359,E 47 St & Park Ave,40.75510267,-73.97498696,3,3,#B20481
360,William St & Pine St,40.70717936,-74.00887308,0,2,#5BBC35
361,Allen St & Hester St,40.71605866,-73.99190759,0,1,#3F70C6
362,Broadway & W 37 St,40.75172632,-73.98753523,2,2,#528A8F
363,West Thames St,40.70834698,-74.01713445,1,0,#716EDA
364,Lafayette Ave & Classon Ave,40.68900443,-73.96023854,1,0,#C6C7A8
366,Clinton Ave & Myrtle Ave,40.693261,-73.968896,1,0,#AE155A
368,Carmine St & 6 Ave,40.73038599,-74.00214988,2,0,#B9911F
369,Washington Pl & 6 Ave,40.73224119,-74.00026394,1,0,#83AEEF
375,Mercer St & Bleecker St,40.72679454,-73.99695094,0,2,#4C4594
376,John St & William St,40.70862144,-74.00722156,1,0,#4BC10E
377,6 Ave & Canal St,40.72243797,-74.00566443,0,1,#9CCA99
379,W 31 St & 7 Ave,40.749156,-73.9916,0,1,#DE37A9
380,W 4 St & 7 Ave S,40.73401143,-74.00293877,1,0,#51E4E5
382,University Pl & E 14 St,40.73492695,-73.99200509,0,2,#C2B5B0
385,E 55 St & 2 Ave,40.75797322,-73.96603308,1,1,#76D0C5
394,E 9 St & Avenue C,40.72521311,-73.97768752,3,0,#A5D5ED
402,Broadway & E 22 St,40.7403432,-73.98955109,0,1,#390584
403,E 2 St & 2 Ave,40.72502876,-73.99069656,1,0,#B5EBDF
406,Hicks St & Montague St,40.69512845,-73.99595065,1,0,#45878E
415,Pearl St & Hanover Square,40.7047177,-74.00926027,0,1,#FCD67D
417,Barclay St & Church St,40.71291224,-74.01020234,0,1,#C8DAFA
418,Front St & Gold St,40.70224,-73.982578,1,0,#BEF80A
421,Clermont Ave & Park Ave,40.69573398,-73.97129668,1,0,#D6B85C
422,W 59 St & 10 Ave,40.770513,-73.988038,4,1,#29986C
426,West St & Chambers St,40.71754834,-74.01322069,0,2,#77FC58
428,E 3 St & 1 Ave,40.72467721,-73.98783413,1,2,#EB8EA2
432,E 7 St & Avenue A,40.72621788,-73.98379855,2,0,#E33B52
433,E 13 St & Avenue A,40.72955361,-73.98057249,0,1,#1FE895
435,W 21 St & 6 Ave,40.74173969,-73.99415556,1,3,#40E3C1
437,Macon St & Nostrand Ave,40.6809833854,-73.9500479759,0,1,#2C174D
438,St Marks Pl & 1 Ave,40.72779126,-73.98564945,3,0,#EA848B
440,E 45 St & 3 Ave,40.75255434,-73.97282625,0,1,#189092
441,E 52 St & 2 Ave,40.756014,-73.967416,1,0,#910754
444,Broadway & W 24 St,40.7423543,-73.98915076,0,2,#CB41E4
446,W 24 St & 7 Ave,40.74487634,-73.99529885,4,2,#BFED8B
447,8 Ave & W 52 St,40.76370739,-73.9851615,2,1,#9D1747
448,W 37 St & 10 Ave,40.75660359,-73.9979009,3,0,#E6C890
450,W 49 St & 8 Ave,40.76227205,-73.98788205,2,1,#97D692
453,W 22 St & 8 Ave,40.74475148,-73.99915362,3,0,#29D293
454,E 51 St & 1 Ave,40.75455731,-73.96592976,3,0,#0236B2
455,1 Ave & E 44 St,40.75001986,-73.96905301,0,1,#CDD80E
456,E 53 St & Madison Ave,40.7597108,-73.97402311,0,1,#A30826
457,Broadway & W 58 St,40.76695317,-73.98169333,1,1,#1CC106
458,11 Ave & W 27 St,40.751396,-74.005226,2,0,#34896F
459,W 20 St & 11 Ave,40.746745,-74.007756,0,9,#99C7B3
461,E 20 St & 2 Ave,40.73587678,-73.98205027,1,2,#F088C3
462,W 22 St & 10 Ave,40.74691959,-74.00451887,2,1,#98E7E5
465,Broadway & W 41 St,40.75513557,-73.98658032,1,2,#AEAA0C
466,W 25 St & 6 Ave,40.74395411,-73.99144871,2,2,#5272CB
467,Dean St & 4 Ave,40.68312489,-73.97895137,2,1,#ADB662
468,Broadway & W 55 St,40.7652654,-73.98192338,3,0,#938D6D
469,Broadway & W 53 St,40.76344058,-73.98268129,0,3,#CF3A22
470,W 20 St & 8 Ave,40.74345335,-74.00004031,2,1,#818D7E
471,Grand St & Havemeyer St,40.71286844,-73.95698119,1,0,#FEF919
472,E 32 St & Park Ave,40.7457121,-73.98194829,0,3,#729C72
474,5 Ave & E 29 St,40.7451677,-73.98683077,0,3,#9081E3
476,E 31 St & 3 Ave,40.74394314,-73.97966069,2,2,#2C34CC
477,W 41 St & 8 Ave,40.75640548,-73.9900262,1,0,#9DD04F
478,11 Ave & W 41 St,40.76030096,-73.99884222,1,2,#A08326
479,9 Ave & W 45 St,40.76019252,-73.9912551,3,1,#E68C34
481,S 3 St & Bedford Ave,40.71260486,-73.96264403,1,0,#1A553D
482,W 15 St & 7 Ave,40.73935542,-73.99931783,0,1,#0833D0
483,E 12 St & 3 Ave,40.73223272,-73.98889957,3,0,#8F5AA9
484,W 44 St & 5 Ave,40.75500254,-73.98014437,0,3,#92882B
485,W 37 St & 5 Ave,40.75038009,-73.98338988,1,3,#C88646
486,Broadway & W 29 St,40.7462009,-73.98855723,1,3,#2AFFEB
487,E 20 St & FDR Drive,40.73314259,-73.97573881,1,0,#B91F45
488,W 39 St & 9 Ave,40.75645824,-73.99372222,2,1,#873FBB
489,10 Ave & W 28 St,40.75066386,-74.00176802,1,0,#A3A264
490,8 Ave & W 33 St,40.751551,-73.993934,5,1,#40A14A
491,E 24 St & Park Ave S,40.74096374,-73.98602213,1,5,#E7A041
492,W 33 St & 7 Ave,40.75019995,-73.99093085,2,1,#411EAC
493,W 45 St & 6 Ave,40.7568001,-73.98291153,0,4,#E4CE20
494,W 26 St & 8 Ave,40.74734825,-73.99723551,0,1,#7260F8
496,E 16 St & 5 Ave,40.73726186,-73.99238967,1,2,#967E06
497,E 17 St & Broadway,40.73704984,-73.99009296,0,3,#69A548
498,Broadway & W 32 St,40.74854862,-73.98808416,0,1,#BB94F8
499,Broadway & W 60 St,40.76915505,-73.98191841,0,3,#66EDF5
500,Broadway & W 51 St,40.76228826,-73.98336183,0,2,#B0AA2E
502,Henry St & Grand St,40.714215,-73.981346,1,0,#CB941A
503,E 20 St & Park Ave,40.73827428,-73.98751968,3,2,#C8C85A
504,1 Ave & E 15 St,40.73221853,-73.98165557,2,0,#E74F48
505,6 Ave & W 33 St,40.74901271,-73.98848395,3,2,#B27D84
510,W 51 St & 6 Ave,40.7606597,-73.98042047,1,3,#70BDE5
511,E 14 St & Avenue B,40.72938685,-73.97772429,3,0,#F779A3
514,12 Ave & W 40 St,40.76087502,-74.00277668,1,2,#112778
515,W 43 St & 10 Ave,40.76009437,-73.99461843,2,2,#02BD94
517,Pershing Square South,40.751581,-73.97791,3,0,#2B8856
518,E 39 St & 2 Ave,40.74780373,-73.9734419,2,1,#2663C1
519,Pershing Square North,40.751873,-73.977706,2,3,#868AFF
520,W 52 St & 5 Ave,40.75992262,-73.97648516,0,1,#CEC670
521,8 Ave & W 31 St,40.7509673487,-73.9944420755,16,2,#DF32AA
522,E 51 St & Lexington Ave,40.75714758,-73.97207836,0,5,#72228F
524,W 43 St & 6 Ave,40.75527307,-73.98316936,1,3,#80FBF1
526,E 33 St & 5 Ave,40.74765947,-73.98490707,0,2,#3DDBA7
527,E 33 St & 2 Ave,40.744023,-73.976056,1,1,#AF129A
528,2 Ave & E 31 St,40.74290902,-73.97706058,2,1,#44DD7D
529,W 42 St & 8 Ave,40.7575699,-73.99098507,14,0,#3EB046
530,11 Ave & W 59 St,40.771522,-73.990541,0,2,#547DD7
531,Forsyth St & Broome St,40.71893904,-73.99266288,0,1,#ECC93B
533,Broadway & W 39 St,40.75299641,-73.98721619,1,1,#A7D10B
534,Water - Whitehall Plaza,40.70255065,-74.0127234,0,1,#0E7025
536,1 Ave & E 30 St,40.74144387,-73.97536082,0,1,#AF4941
537,Lexington Ave & E 24 St,40.74025878,-73.98409214,1,1,#328BC2
540,Lexington Ave & E 29 St,40.7431155538,-73.9821535349,1,0,#CE5518
545,E 23 St & 1 Ave,40.736502,-73.97809472,1,0,#3D1D04
546,E 30 St & Park Ave S,40.74444921,-73.98303529,1,5,#10FFEC
2003,1 Ave & E 18 St,40.733812192,-73.9805442095,1,0,#4118AB
2004,6 Ave & Broome St,40.724399,-74.004704,1,1,#87CC79
2006,Central Park S & 6 Ave,40.76590936,-73.97634151,2,2,#844E88
2008,Little West St & 1 Pl,40.70569254,-74.01677685,2,0,#FD109D
2012,E 27 St & 1 Ave,40.739445,-73.976806,0,3,#7AA65E
2017,E 43 St & 2 Ave,40.75022392,-73.97121414,0,2,#5F6750
2021,W 45 St & 8 Ave,40.75929124,-73.98859651,2,0,#CDBC11
2022,E 59 St & Sutton Pl,40.75849116,-73.95920622,0,1,#8E140C
3002,South End Ave & Liberty St,40.711512,-74.015756,1,1,#9FD8A6
3047,Halsey St & Tompkins Ave,40.6823687,-73.944118,1,0,#EFFE64
3076,Scholes St & Manhattan Ave,40.70870368,-73.9448625,1,0,#CA51CC
3086,Graham Ave & Conselyea St,40.715143,-73.944507,0,1,#033FCF
3087,Metropolitan Ave & Meeker Ave,40.71413311,-73.95234386,0,1,#D440EE
3097,N Henry St & Richardson St,40.71921585,-73.9424469,1,0,#476234
3118,McGuinness Blvd & Eagle St,40.73555,-73.95284,1,0,#B866CF
3119,Vernon Blvd & 50 Ave,40.74232744,-73.95411749,0,1,#C72189
3129,Queens Plaza North & Crescent St,40.75110165,-73.94073717,1,0,#400D17
3134,3 Ave & E 62 St,40.76312584,-73.96526895,1,0,#2C4350
3135,E 75 St & 3 Ave,40.77112927,-73.95772297,2,0,#057DDB
3137,5 Ave & E 73 St,40.77282817,-73.96685276,0,1,#6CFE4A
3140,1 Ave & E 78 St,40.77140426,-73.9535166,1,0,#691620
3141,1 Ave & E 68 St,40.76500525,-73.95818491,2,4,#F17D9B
3142,1 Ave & E 62 St,40.7612274,-73.96094022,1,0,#6D2B32
3145,E 84 St & Park Ave,40.77862688,-73.95772073,1,1,#83B22D
3148,E 84 St & 1 Ave,40.77565541,-73.95068615,2,0,#8DA95D
3149,E 82 St & 2 Ave,40.77517793,-73.95324922,2,0,#BF3229
3150,E 85 St & York Ave,40.77536905,-73.94803392,0,1,#E71E6E
3156,E 72 St & York Ave,40.76663814,-73.95348296,0,2,#6A66A9
3158,W 63 St & Broadway,40.77163851,-73.98261428,0,1,#BCCAB4
3159,W 67 St & Broadway,40.77492513,-73.98266566,0,1,#44723E
3168,Central Park West & W 85 St,40.78472675,-73.96961715,2,0,#7F09CB
3170,W 84 St & Columbus Ave,40.78499979,-73.97283406,2,0,#64CB7B
3171,Amsterdam Ave & W 82 St,40.78524672,-73.97667321,1,0,#6E51E1
3175,W 70 St & Amsterdam Ave,40.77748046,-73.98288594,1,1,#8B4120
3177,W 84 St & Broadway,40.7867947,-73.977112,1,0,#6B9E7F
3222,Hanson Pl & St Felix St,40.6851595999,-73.9771136642,1,0,#FFED1C
3223,E 55 St & 3 Ave,40.7589965596,-73.9686539769,0,1,#74FC6D
3233,E 48 St & 5 Ave,40.7572456791,-73.9780591428,0,1,#206119
3234,E 40 St & Madison Ave,40.7515936845,-73.9804315567,0,2,#D869E0
3235,E 41 St & Madison Ave,40.7521652806,-73.979921937,0,2,#358BAF
