station_id,name,lat,lon,bikes_out,bikes_in,color
72,W 52 St & 11 Ave,40.76727216,-73.99392888,6,2,#128B9A
79,Franklin St & W Broadway,40.71911552,-74.00666661,11,5,#39F7FD
82,St James Pl & Pearl St,40.71117416,-74.00016545,2,2,#B3EE86
83,Atlantic Ave & Fort Greene Pl,40.68382604,-73.97632328,1,4,#D46D3B
116,W 17 St & 8 Ave,40.74177603,-74.00149746,14,19,#218AD5
119,Park Ave & St Edwards St,40.69608941,-73.97803415,0,1,#D137DF
120,Lexington Ave & Classon Ave,40.68676793,-73.95928168,3,0,#DD79BE
127,Barrow St & Hudson St,40.73172428,-74.00674436,6,7,#278881
137,E 56 St & Madison Ave,40.761628,-73.972924,1,2,#97F3C6
143,Clinton St & Joralemon St,40.69239502,-73.99337909,1,0,#091448
144,Nassau St & Navy St,40.69839895,-73.98068914,1,0,#957A1E
146,Hudson St & Reade St,40.71625008,-74.0091059,4,0,#8F954E
147,Greenwich St & Warren St,40.71542197,-74.01121978,16,11,#6527A2
150,E 2 St & Avenue C,40.7208736,-73.98085795,6,3,#C19932
151,Cleveland Pl & Spring St,40.7221037867,-73.9972490072,19,11,#0A02FB
152,Warren St & Church St,40.71473993,-74.00910627,4,1,#4934EB
157,Henry St & Atlantic Ave,40.69089272,-73.99612349,1,1,#8850ED
160,E 37 St & Lexington Ave,40.748238,-73.978311,2,2,#9E4517
161,LaGuardia Pl & W 3 St,40.72917025,-73.99810231,4,11,#6F0C40
164,E 47 St & 2 Ave,40.75323098,-73.97032517,1,3,#C835FD
167,E 39 St & 3 Ave,40.7489006,-73.97604882,5,5,#A0A2CE
168,W 18 St & 6 Ave,40.73971301,-73.99456405,23,16,#E63349
173,Broadway & W 49 St,40.76064679,-73.98442659,6,8,#20772F
174,E 25 St & 1 Ave,40.7381765,-73.97738662,12,11,#C20EFE
195,Liberty St & Broadway,40.70905623,-74.01043382,4,2,#306510
212,W 16 St & The High Line,40.74334935,-74.00681753,4,3,#752929
216,Columbia Heights & Cranberry St,40.70037867,-73.99548059,1,0,#8DB039
217,Old Fulton St,40.70277159,-73.99383605,0,2,#2C56B0
223,W 13 St & 7 Ave,40.73781509,-73.99994661,4,4,#C9A270
224,Spruce St & Nassau St,40.71146364,-74.00552427,5,8,#0A77EA
225,W 14 St & The High Line,40.74195138,-74.00803013,4,6,#92E0FD
228,E 48 St & 3 Ave,40.7546011,-73.97187886,4,2,#42DBB7
229,Great Jones St,40.72743423,-73.99379025,11,11,#225B8A
233,Joralemon St & Adams St,40.69246277,-73.98963911,1,0,#0BB182
236,St Marks Pl & 2 Ave,40.7284186,-73.98713956,8,9,#026E60
237,E 11 St & 2 Ave,40.73047309,-73.98672378,10,15,#7AA9FF
238,Bank St & Washington St,40.7361967,-74.00859207,4,5,#DD84E6
239,Willoughby St & Fleet St,40.69196566,-73.9813018,8,2,#9E36AC
241,DeKalb Ave & S Portland Ave,40.68981035,-73.97493121,1,4,#0B5559
242,Flushing Ave & Carlton Ave,40.69788349,-73.97350332,0,1,#F83B12
243,Fulton St & Rockwell Pl,40.688226,-73.979382,1,0,#9F1074
244,Willoughby Ave & Hall St,40.69196035,-73.96536851,0,4,#4D0DFC
245,Myrtle Ave & St Edwards St,40.69327018,-73.97703874,2,0,#9271C4
247,Perry St & Bleecker St,40.73535398,-74.00483091,5,4,#AE70F2
248,Laight St & Hudson St,40.72185379,-74.00771779,1,1,#258017
249,Harrison St & Hudson St,40.71870987,-74.0090009,6,3,#B9A13A
250,Lafayette St & Jersey St,40.72456089,-73.99565293,16,9,#F93AE6
251,Mott St & Prince St,40.72317958,-73.99480012,12,8,#236CD1
252,MacDougal St & Washington Sq,40.73226398,-73.99852205,6,9,#25905B
253,W 13 St & 5 Ave,40.73543934,-73.99453948,2,2,#B211F8
254,W 11 St & 6 Ave,40.73532427,-73.99800419,2,9,#D1A853
257,Lispenard St & Broadway,40.71939226,-74.00247214,6,7,#BF5B29
258,DeKalb Ave & Vanderbilt Ave,40.68940747,-73.96885458,1,3,#4DF6C5
259,South St & Whitehall St,40.70122128,-74.01234218,2,2,#92E822
260,Broad St & Bridge St,40.70365182,-74.01167797,2,0,#4A1999
261,Johnson St & Gold St,40.69474881,-73.98362464,5,2,#94CA03
263,Elizabeth St & Hester St,40.71729,-73.996375,9,8,#E2D9CE
264,Maiden Ln & Pearl St,40.70706456,-74.00731853,3,5,#891390
265,Stanton St & Chrystie St,40.72229346,-73.99147535,6,13,#D804EB
266,Avenue D & E 8 St,40.72368361,-73.97574813,2,2,#B6DA58
267,Broadway & W 36 St,40.75097711,-73.98765428,2,7,#0B0248
268,Howard St & Centre St,40.71910537,-73.99973337,13,5,#003409
270,Adelphi St & Myrtle Ave,40.69308257,-73.97178913,3,4,#1DE7C4
274,Lafayette Ave & Fort Greene Pl,40.68691865,-73.976682,1,3,#513AD4
276,Duane St & Greenwich St,40.71748752,-74.0104554,10,3,#ED30DA
278,Concord St & Bridge St,40.69766564,-73.98476437,2,1,#434EDB
279,Peck Slip & Front St,40.707873,-74.00167,6,3,#B382BC
280,E 10 St & 5 Ave,40.73331967,-73.99510132,10,12,#AD98E1
281,Grand Army Plaza & Central Park S,40.7643971,-73.97371465,8,3,#5C64F9
282,Kent Ave & S 11 St,40.70827295,-73.96834101,4,5,#72A6F2
284,Greenwich Ave & 8 Ave,40.7390169121,-74.0026376103,22,21,#4F3AF1
285,Broadway & E 14 St,40.73454567,-73.99074142,18,21,#28F337
290,2 Ave & E 58 St,40.76020258,-73.96478473,2,3,#817DA2
291,Madison St & Montgomery St,40.713126,-73.984844,2,3,#3F3269
293,Lafayette St & E 8 St,40.73028666,-73.9907647,24,28,#932D10
295,Pike St & E Broadway,40.71406667,-73.99293911,1,4,#CC4E64
296,Division St & Bowery,40.71413089,-73.9970468,4,9,#FB2237
297,E 15 St & 3 Ave,40.734232,-73.986923,7,9,#0E27EC
298,3 Ave & Schermerhorn St,40.68683208,-73.9796772,1,2,#1C3C18
300,Shevchenko Pl & E 7 St,40.728145,-73.990214,8,9,#267F04
301,E 2 St & Avenue B,40.72217444,-73.98368779,5,7,#C7D346
302,Avenue D & E 3 St,40.72082834,-73.97793172,1,2,#3CDC05
303,Mercer St & Spring St,40.72362738,-73.99949601,9,8,#CBE888
304,Broadway & Battery Pl,40.70463334,-74.01361706,5,4,#B106DE
305,E 58 St & 3 Ave,40.76095756,-73.96724467,4,4,#9B6D18
306,Cliff St & Fulton St,40.70823502,-74.00530063,8,8,#B1012B
307,Canal St & Rutgers St,40.71427487,-73.98990025,6,9,#E0CA26
308,St James Pl & Oliver St,40.71307916,-73.99851193,1,2,#9BA0FA
309,Murray St & West St,40.7149787,-74.013012,9,5,#BA913A
310,State St & Smith St,40.68926942,-73.98912867,3,3,#2F62D0
311,Norfolk St & Broome St,40.7172274,-73.98802084,6,11,#079E9A
312,Allen St & E Houston St,40.722055,-73.989111,8,13,#B83DBB
313,Washington Ave & Park Ave,40.69610226,-73.96751037,0,2,#8B1531
314,Cadman Plaza West & Montague St,40.69383,-73.990539,2,0,#9C765A
315,South St & Gouverneur Ln,40.70355377,-74.00670227,1,0,#F8CE3C
316,Fulton St & William St,40.70955958,-74.00653609,8,6,#7A0B62
317,E 6 St & Avenue B,40.72453734,-73.98185424,5,5,#20A55E
319,Fulton St & Broadway,40.711066,-74.009447,2,3,#BE592F
320,Leonard St & Church St,40.717571,-74.005549,11,4,#F496F5
321,Cadman Plaza E & Red Cross Pl,40.69991755,-73.98971773,1,1,#FFA97A
322,Clinton St & Tillary St,40.696192,-73.991218,0,1,#61295E
323,Lawrence St & Willoughby St,40.69236178,-73.98631746,4,3,#530790
324,DeKalb Ave & Hudson Ave,40.689888,-73.981013,6,3,#0D9CFE
325,E 19 St & 3 Ave,40.73624527,-73.98473765,11,6,#2BA34A
326,E 11 St & 1 Ave,40.72953837,-73.98426726,7,8,#A0879F
327,Vesey Pl & River Terrace,40.7153379,-74.01658354,17,10,#F52297
328,Watts St & Greenwich St,40.72405549,-74.00965965,7,5,#484685
329,Greenwich St & N Moore St,40.72043411,-74.01020609,5,4,#0BE9E2
330,Reade St & Broadway,40.71450451,-74.00562789,6,3,#C75202
331,Pike St & Monroe St,40.71173107,-73.99193043,2,1,#2C7D34
332,Cherry St,40.71219906,-73.97948148,1,0,#E81948
334,W 20 St & 7 Ave,40.74238787,-73.99726235,11,13,#65C15B
335,Washington Pl & Broadway,40.72903917,-73.99404649,8,12,#040A34
336,Sullivan St & Washington Sq,40.73047747,-73.99906065,9,19,#7670AE
337,Old Slip & Front St,40.7037992,-74.00838676,1,0,#14E034
339,Avenue D & E 12 St,40.72580614,-73.97422494,2,3,#46904C
340,Madison St & Clinton St,40.71269042,-73.98776323,2,2,#AD840E
341,Stanton St & Mangin St,40.71782143,-73.97628939,2,2,#15CE65
342,Columbia St & Rivington St,40.71739973,-73.98016555,2,3,#5854EA
344,Monroe St & Bedford Ave,40.6851443,-73.95380904,2,2,#559972
345,W 13 St & 6 Ave,40.73649403,-73.99704374,8,10,#467D30
346,Bank St & Hudson St,40.73652889,-74.00618026,5,4,#50E97A
347,Greenwich St & W Houston St,40.728846,-74.008591,15,27,#680E90
348,W Broadway & Spring St,40.72490985,-74.00154702,8,5,#1FA7E5
350,Clinton St & Grand St,40.71559509,-73.9870295,3,6,#0CA28C
351,Front St & Maiden Ln,40.70530954,-74.00612572,0,3,#E86FAB
352,W 56 St & 6 Ave,40.76340613,-73.97722479,7,9,#947ECD
353,S Portland Ave & Hanson Pl,40.68539567,-73.97431458,0,2,#A0C9B1
354,Emerson Pl & Myrtle Ave,40.69363137,-73.96223558,1,1,#800344
355,Bayard St & Baxter St,40.71602118,-73.99974372,5,6,#043604
356,Bialystoker Pl & Delancey St,40.71622644,-73.98261206,2,6,#97312C
357,E 11 St & Broadway,40.73261787,-73.99158043,2,3,#A6CBE8
358,Christopher St & Greenwich St,40.73291553,-74.00711384,13,11,#1F77A4
359,E 47 St & Park Ave,40.75510267,-73.97498696,7,5,#5CD659
360,William St & Pine St,40.70717936,-74.00887308,1,1,#C5D38F
361,Allen St & Hester St,40.71605866,-73.99190759,2,7,#A11BAA
362,Broadway & W 37 St,40.75172632,-73.98753523,1,3,#1C2726
363,West Thames St,40.70834698,-74.01713445,10,4,#D40641
364,Lafayette Ave & Classon Ave,40.68900443,-73.96023854,2,1,#8CD1FD
365,Fulton St & Grand Ave,40.68223166,-73.9614583,1,3,#8F09DC
366,Clinton Ave & Myrtle Ave,40.693261,-73.968896,0,5,#F722F0
367,E 53 St & Lexington Ave,40.75828065,-73.97069431,2,1,#D73770
368,Carmine St & 6 Ave,40.73038599,-74.00214988,17,12,#FEEBFC
369,Washington Pl & 6 Ave,40.73224119,-74.00026394,8,9,#624B6D
372,Franklin Ave & Myrtle Ave,40.694528,-73.958089,0,1,#C09B2B
375,Mercer St & Bleecker St,40.72679454,-73.99695094,11,12,#A06F54
376,John St & William St,40.70862144,-74.00722156,2,5,#08C1F5
377,6 Ave & Canal St,40.72243797,-74.00566443,6,3,#223548
379,W 31 St & 7 Ave,40.749156,-73.9916,15,8,#6410A7
380,W 4 St & 7 Ave S,40.73401143,-74.00293877,7,7,#DC9B46
382,University Pl & E 14 St,40.73492695,-73.99200509,7,14,#ECFB23
383,Greenwich Ave & Charles St,40.735238,-74.000271,11,11,#216693
384,Fulton St & Washington Ave,40.683048,-73.964915,0,4,#6244EA
385,E 55 St & 2 Ave,40.75797322,-73.96603308,4,4,#5BCB8E
386,Centre St & Worth St,40.71494807,-74.00234482,0,1,#5F81A5
387,Centre St & Chambers St,40.71273266,-74.0046073,13,4,#4CADE7
388,W 26 St & 10 Ave,40.749717753,-74.002950346,9,10,#4CDE0A
389,Broadway & Berry St,40.71044554,-73.96525063,1,5,#F5158D
390,Duffield St & Willoughby St,40.69221589,-73.9842844,2,1,#4BF98F
391,Clark St & Henry St,40.69760127,-73.99344559,5,1,#9A5D77
393,E 5 St & Avenue C,40.72299208,-73.97995466,4,4,#D1004B
395,Bond St & Schermerhorn St,40.68807003,-73.98410637,1,3,#8E2217
396,Lefferts Pl & Franklin Ave,40.680342423,-73.9557689392,1,1,#6AE354
397,Fulton St & Clermont Ave,40.68415748,-73.96922273,1,3,#91DE88
398,Atlantic Ave & Furman St,40.69165183,-73.9999786,0,2,#F9920D
399,Lafayette Ave & St James Pl,40.68851534,-73.9647628,1,0,#0A4867
400,Pitt St & Stanton St,40.71926081,-73.98178024,5,6,#34C3DA
401,Allen St & Rivington St,40.72019576,-73.98997825,10,17,#5DDF10
402,Broadway & E 22 St,40.7403432,-73.98955109,14,13,#676443
403,E 2 St & 2 Ave,40.72502876,-73.99069656,7,6,#04027A
405,Washington St & Gansevoort St,40.739323,-74.008119,5,8,#51C74E
406,Hicks St & Montague St,40.69512845,-73.99595065,1,5,#9F3264
407,Henry St & Poplar St,40.700469,-73.991454,2,1,#AE196E
408,Market St & Cherry St,40.71076228,-73.99400398,2,9,#521364
410,Suffolk St & Stanton St,40.72066442,-73.98517977,15,18,#7F20DD
411,E 6 St & Avenue D,40.72228087,-73.97668709,2,7,#E9A106
412,Forsyth St & Canal St,40.7158155,-73.99422366,9,5,#C7D6C9
414,Pearl St & Anchorage Pl,40.70281858,-73.98765762,1,0,#EDC2D9
415,Pearl St & Hanover Square,40.7047177,-74.00926027,11,2,#447282
416,Cumberland St & Lafayette Ave,40.68753406,-73.97265183,3,2,#2769F8
417,Barclay St & Church St,40.71291224,-74.01020234,2,9,#A9A746
418,Front St & Gold St,40.70224,-73.982578,1,0,#DE11CD
421,Clermont Ave & Park Ave,40.69573398,-73.97129668,0,1,#5EC2C7
422,W 59 St & 10 Ave,40.770513,-73.988038,5,3,#7AF7E8
423,W 54 St & 9 Ave,40.76584941,-73.98690506,6,10,#58E987
426,West St & Chambers St,40.71754834,-74.01322069,5,6,#DA5A00
427,Bus Slip & State St,40.701907,-74.013942,3,1,#A71889
428,E 3 St & 1 Ave,40.72467721,-73.98783413,13,10,#08A18D
430,York St & Jay St,40.7014851,-73.98656928,4,2,#5A9A7B
433,E 13 St & Avenue A,40.72955361,-73.98057249,4,5,#0FA53D
434,9 Ave & W 18 St,40.74317449,-74.00366443,12,9,#952EF5
435,W 21 St & 6 Ave,40.74173969,-73.99415556,26,18,#DB4A00
436,Hancock St & Bedford Ave,40.68216564,-73.95399026,0,1,#3DDFBB
437,Macon St & Nostrand Ave,40.6809833854,-73.9500479759,1,0,#6F2C66
438,St Marks Pl & 1 Ave,40.72779126,-73.98564945,12,10,#12670C
439,E 4 St & 2 Ave,40.7262807,-73.98978041,7,7,#8D33FC
440,E 45 St & 3 Ave,40.75255434,-73.97282625,2,3,#103E6B
441,E 52 St & 2 Ave,40.756014,-73.967416,5,3,#D38B43
442,W 27 St & 7 Ave,40.746647,-73.993915,9,12,#20AB06
443,Bedford Ave & S 9 St,40.70853074,-73.96408963,0,2,#F08D55
444,Broadway & W 24 St,40.7423543,-73.98915076,7,6,#8B36ED
445,E 10 St & Avenue A,40.72740794,-73.98142006,8,34,#23A111
446,W 24 St & 7 Ave,40.74487634,-73.99529885,21,11,#2C6EC2
447,8 Ave & W 52 St,40.76370739,-73.9851615,8,9,#435480
448,W 37 St & 10 Ave,40.75660359,-73.9979009,14,11,#7E4507
449,W 52 St & 9 Ave,40.76461837,-73.98789473,4,9,#380A63
450,W 49 St & 8 Ave,40.76227205,-73.98788205,12,12,#DF7650
453,W 22 St & 8 Ave,40.74475148,-73.99915362,12,12,#9ED7F0
454,E 51 St & 1 Ave,40.75455731,-73.96592976,3,6,#A92641
455,1 Ave & E 44 St,40.75001986,-73.96905301,1,1,#3CAFD5
456,E 53 St & Madison Ave,40.7597108,-73.97402311,1,0,#37A6C8
457,Broadway & W 58 St,40.76695317,-73.98169333,12,10,#F2130A
458,11 Ave & W 27 St,40.751396,-74.005226,13,6,#2D48A1
459,W 20 St & 11 Ave,40.746745,-74.007756,11,8,#E9ECF3
460,S 4 St & Wythe Ave,40.71285887,-73.96590294,5,5,#20034B
461,E 20 St & 2 Ave,40.73587678,-73.98205027,15,17,#BF06C9
462,W 22 St & 10 Ave,40.74691959,-74.00451887,13,19,#2452F5
463,9 Ave & W 16 St,40.74206539,-74.00443172,18,12,#DE8C97
465,Broadway & W 41 St,40.75513557,-73.98658032,8,4,#2DC34B
466,W 25 St & 6 Ave,40.74395411,-73.99144871,10,2,#052910
467,Dean St & 4 Ave,40.68312489,-73.97895137,4,4,#11C8DE
468,Broadway & W 55 St,40.7652654,-73.98192338,4,3,#EEAB4C
469,Broadway & W 53 St,40.76344058,-73.98268129,1,1,#E452DF
470,W 20 St & 8 Ave,40.74345335,-74.00004031,4,5,#B35C45
471,Grand St & Havemeyer St,40.71286844,-73.95698119,2,10,#77B42C
472,E 32 St & Park Ave,40.7457121,-73.98194829,9,7,#A9E7E1
473,Rivington St & Chrystie St,40.72110063,-73.9919254,3,5,#7ECD04
474,5 Ave & E 29 St,40.7451677,-73.98683077,5,5,#F8DF34
475,E 16 St & Irving Pl,40.73524276,-73.98758561,5,7,#00DF12
476,E 31 St & 3 Ave,40.74394314,-73.97966069,14,13,#4A150F
477,W 41 St & 8 Ave,40.75640548,-73.9900262,17,12,#15D6A4
478,11 Ave & W 41 St,40.76030096,-73.99884222,11,5,#DB79D0
479,9 Ave & W 45 St,40.76019252,-73.9912551,16,11,#1548C3
480,W 53 St & 10 Ave,40.76669671,-73.99061728,2,13,#6FBAC0
481,S 3 St & Bedford Ave,40.71260486,-73.96264403,1,3,#E99A5C
482,W 15 St & 7 Ave,40.73935542,-73.99931783,7,6,#6F35DE
483,E 12 St & 3 Ave,40.73223272,-73.98889957,14,16,#8A8D92
484,W 44 St & 5 Ave,40.75500254,-73.98014437,5,5,#BEBF82
485,W 37 St & 5 Ave,40.75038009,-73.98338988,8,5,#141E2C
486,Broadway & W 29 St,40.7462009,-73.98855723,6,4,#F0D6D9
487,E 20 St & FDR Drive,40.73314259,-73.97573881,7,4,#81DE12
488,W 39 St & 9 Ave,40.75645824,-73.99372222,15,9,#89F9A9
489,10 Ave & W 28 St,40.75066386,-74.00176802,8,11,#266DEB
490,8 Ave & W 33 St,40.751551,-73.993934,17,15,#F35ABA
491,E 24 St & Park Ave S,40.74096374,-73.98602213,4,3,#80E07B
492,W 33 St & 7 Ave,40.75019995,-73.99093085,12,6,#FAA816
494,W 26 St & 8 Ave,40.74734825,-73.99723551,17,13,#E64D3C
495,W 47 St & 10 Ave,40.76269882,-73.99301222,9,11,#43DB48
496,E 16 St & 5 Ave,40.73726186,-73.99238967,14,8,#236384
497,E 17 St & Broadway,40.73704984,-73.99009296,18,22,#BB25BE
498,Broadway & W 32 St,40.74854862,-73.98808416,22,10,#11622A
499,Broadway & W 60 St,40.76915505,-73.98191841,8,12,#BBF993
500,Broadway & W 51 St,40.76228826,-73.98336183,6,3,#A79EF8
501,FDR Drive & E 35 St,40.744219,-73.97121214,4,7,#8E061E
502,Henry St & Grand St,40.714215,-73.981346,6,8,#E02B18
503,E 20 St & Park Ave,40.73827428,-73.98751968,6,3,#8656E2
504,1 Ave & E 15 St,40.73221853,-73.98165557,5,23,#DE9AEF
505,6 Ave & W 33 St,40.74901271,-73.98848395,13,7,#3DF322
507,E 25 St & 2 Ave,40.73912601,-73.97973776,0,1,#2002EF
508,W 46 St & 11 Ave,40.76341379,-73.99667444,8,9,#3FB1CE
509,9 Ave & W 22 St,40.7454973,-74.00197139,17,12,#2097BB
510,W 51 St & 6 Ave,40.7606597,-73.98042047,1,1,#D29CAC
511,E 14 St & Avenue B,40.72938685,-73.97772429,9,20,#C7F758
512,W 29 St & 9 Ave,40.7500727,-73.99839279,4,12,#93DE45
513,W 56 St & 10 Ave,40.768254,-73.988639,2,7,#6A3A18
514,12 Ave & W 40 St,40.76087502,-74.00277668,3,15,#54AEE1
515,W 43 St & 10 Ave,40.76009437,-73.99461843,11,6,#5D25E6
516,E 47 St & 1 Ave,40.75206862,-73.96784384,1,0,#7922E9
517,Pershing Square South,40.751581,-73.97791,2,0,#833B6A
518,E 39 St & 2 Ave,40.74780373,-73.9734419,8,5,#E98562
519,Pershing Square North,40.751873,-73.977706,18,15,#BA272D
520,W 52 St & 5 Ave,40.75992262,-73.97648516,24,2,#260CFB
521,8 Ave & W 31 St,40.7509673487,-73.9944420755,9,5,#540ADF
522,E 51 St & Lexington Ave,40.75714758,-73.97207836,2,0,#82A4A4
523,W 38 St & 8 Ave,40.75466591,-73.99138152,22,16,#424C98
524,W 43 St & 6 Ave,40.75527307,-73.98316936,1,3,#491EC1
525,W 34 St & 11 Ave,40.75594159,-74.0021163,38,8,#CCA15C
526,E 33 St & 5 Ave,40.74765947,-73.98490707,10,8,#7700B1
527,E 33 St & 2 Ave,40.744023,-73.976056,23,18,#603824
528,2 Ave & E 31 St,40.74290902,-73.97706058,12,7,#0B2377
529,W 42 St & 8 Ave,40.7575699,-73.99098507,2,17,#E372F7
530,11 Ave & W 59 St,40.771522,-73.990541,5,6,#BF5DC6
531,Forsyth St & Broome St,40.71893904,-73.99266288,6,4,#08CBD8
532,S 5 Pl & S 4 St,40.710451,-73.960876,2,4,#4C69B1
533,Broadway & W 39 St,40.75299641,-73.98721619,4,5,#EAEF49
536,1 Ave & E 30 St,40.74144387,-73.97536082,12,3,#99C86E
537,Lexington Ave & E 24 St,40.74025878,-73.98409214,10,15,#92021E
539,Metropolitan Ave & Bedford Ave,40.71534825,-73.96024116,6,3,#13CBBD
540,Lexington Ave & E 29 St,40.7431155538,-73.9821535349,5,12,#894222
545,E 23 St & 1 Ave,40.736502,-73.97809472,5,8,#45E2CF
546,E 30 St & Park Ave S,40.74444921,-73.98303529,13,12,#10F138
2000,Front St & Washington St,40.70255088,-73.98940236,2,2,#82E562
2001,Sands St & Navy St,40.699773,-73.979927,1,0,#22389E
2002,Wythe Ave & Metropolitan Ave,40.716887,-73.963198,4,8,#9E0B5D
2003,1 Ave & E 18 St,40.733812192,-73.9805442095,5,6,#B7BECF
2004,6 Ave & Broome St,40.724399,-74.004704,2,10,#11CEFC
2006,Central Park S & 6 Ave,40.76590936,-73.97634151,1,1,#5A282C
2008,Little West St & 1 Pl,40.70569254,-74.01677685,3,4,#F5A629
2009,Catherine St & Monroe St,40.71117444,-73.99682619,3,2,#2BD97A
2010,Grand St & Greene St,40.72165481,-74.00234737,8,5,#7DE184
2012,E 27 St & 1 Ave,40.739445,-73.976806,5,4,#DE23D1
2017,E 43 St & 2 Ave,40.75022392,-73.97121414,3,2,#A9DE98
2021,W 45 St & 8 Ave,40.75929124,-73.98859651,21,12,#0D42F9
2022,E 59 St & Sutton Pl,40.75849116,-73.95920622,3,2,#4BE8CC
3002,South End Ave & Liberty St,40.711512,-74.015756,12,6,#5E20CA
3017,NYCBS Depot - FAR,40.751483,-73.996764,0,1,#553A4A
3019,NYCBS Depot - DEL,40.716633,-73.981933,0,1,#25A9F9
3042,Fulton St & Utica Ave,40.6794268,-73.9298911,0,1,#BC651A
3046,Marcus Garvey Blvd & Macon St,40.682601,-73.938037,0,1,#9C76F9
3047,Halsey St & Tompkins Ave,40.6823687,-73.944118,2,1,#FB1F19
3048,Putnam Ave & Nostrand Ave,40.68402,-73.94977,1,0,#DBD887
3049,Cambridge Pl & Gates Ave,40.68488,-73.96304,0,3,#46A327
3050,Putnam Ave & Throop Ave,40.6851532,-73.94111,1,0,#AF1BF9
3052,Lewis Ave & Madison St,40.686312,-73.935775,1,1,#469DDF
3053,Marcy Ave & Lafayette Ave,40.6900815,-73.947915,0,1,#4AA054
3056,Kosciuszko St & Nostrand Ave,40.69072549,-73.95133465,0,1,#EEA4E4
3058,Lewis Ave & Kosciuszko St,40.69237074,-73.93705428,0,1,#001E05
3059,Pulaski St & Marcus Garvey Blvd,40.6933982,-73.939877,2,0,#C127F2
3060,Willoughby Ave & Tompkins Ave,40.69425403,-73.94626915,0,1,#B051BD
3062,Myrtle Ave & Marcy Ave,40.69539817,-73.94954908,1,0,#8415AA
3065,Union Ave & Wallabout St,40.70029511,-73.95032283,2,1,#9DB91F
3067,Broadway & Whipple St,40.7016657,-73.9437303,2,1,#40FFD3
3068,Humboldt St & Varet St,40.7031724,-73.940636,2,0,#62F53E
3069,Lorimer St & Broadway,40.70411791,-73.94818595,4,1,#BB2349
3072,Leonard St & Boerum St,40.70583339,-73.94644578,0,1,#677B14
3074,Montrose Ave & Bushwick Ave,40.70767788,-73.94016171,0,1,#380BC9
3075,Division Ave & Marcy Ave,40.70708701,-73.95796783,1,1,#BB1AEA
3076,Scholes St & Manhattan Ave,40.70870368,-73.9448625,1,1,#BA86FC
3079,Leonard St & Grand St,40.71103537,-73.94714303,0,1,#152DD4
3080,S 4 St & Rodney St,40.70934,-73.95608,0,1,#AD7835
3081,Graham Ave & Grand St,40.711863,-73.944024,1,2,#9BB7F1
3082,Hope St & Union Ave,40.71167351,-73.95141312,3,2,#230689
3083,Bushwick Ave & Powers St,40.71247661,-73.94100005,0,2,#A398A5
3085,Roebling St & N 4 St,40.71469,-73.95739,1,0,#DFBF23
3086,Graham Ave & Conselyea St,40.715143,-73.944507,5,5,#585028
3087,Metropolitan Ave & Meeker Ave,40.71413311,-73.95234386,3,2,#B06870
3088,Union Ave & Jackson St,40.7160751,-73.952029,0,2,#70CB7E
3090,N 8 St & Driggs Ave,40.71774592,-73.95600096,11,4,#02958B
3091,Frost St & Meeker St,40.71764,-73.94882,2,0,#302158
3092,Berry St & N 8 St,40.7190095,-73.95852515,7,1,#76D7DC
3093,N 6 St & Bedford Ave,40.71745169,-73.95850939,12,10,#B194F0
3094,Graham Ave & Withers St,40.7169811,-73.94485918,1,0,#259D85
3095,Graham Ave & Herbert St,40.71929301,-73.94500379,1,1,#0D3988
3097,N Henry St & Richardson St,40.71921585,-73.9424469,0,5,#D40388
3099,Leonard St & Manhattan Ave,40.7215224034,-73.948982656,1,0,#D40D51
3101,N 12 St & Bedford Ave,40.72079821,-73.95484712,1,3,#21945D
3102,Driggs Ave & Lorimer St,40.72179134,-73.9504154,2,2,#A1ED4F
3103,N 11 St & Wythe Ave,40.72153267,-73.95782357,1,5,#DAEBF1
3104,Kent Ave & N 7 St,40.72057658,-73.96150225,4,6,#6789E4
3106,Driggs Ave & N Henry St,40.72325,-73.94308,1,2,#D71117
3107,Bedford Ave & Nassau Ave,40.72311651,-73.95212324,5,7,#76309D
3108,Nassau Ave & Russell St,40.72557,-73.94434,3,5,#75D723
3109,Banker St & Meserole Ave,40.72606,-73.95621,0,2,#0F616D
3110,Meserole Ave & Manhattan Ave,40.72708584,-73.95299117,3,1,#C3A8A5
3111,Norman Ave & Leonard St,40.7258483,-73.95064893,0,3,#F855AA
3112,Milton St & Franklin St,40.72906,-73.95779,1,3,#96ECCB
3113,Greenpoint Ave & Manhattan Ave,40.73026,-73.95394,1,4,#4DCD96
3115,India St & Manhattan Ave,40.73232194,-73.9550858,1,1,#E2018E
3116,Huron St & Franklin St,40.73266,-73.95826,1,1,#630806
3117,Franklin St & Dupont St,40.73564,-73.95866,1,3,#7E089F
3118,McGuinness Blvd & Eagle St,40.73555,-73.95284,2,2,#30E388
3119,Vernon Blvd & 50 Ave,40.74232744,-73.95411749,6,2,#447DFE
3120,Center BlvdÂ & Borden Ave,40.74161,-73.96044,1,1,#E208B3
3122,48 Ave & 5 St,40.7443632871,-73.955873251,1,0,#F4EDB0
3124,46 Ave & 5 St,40.74731,-73.95451,1,3,#0FA219
3125,45 Rd & 11 St,40.74708586,-73.94977234,2,3,#A7E3E9
3126,44 Dr & Jackson Ave,40.74718234,-73.9432635,1,2,#F68FD3
3127,9 St & 44 Rd,40.74966,-73.9521,1,0,#F56D7C
3128,21 St & 43 Ave,40.75052534,-73.94594845,1,0,#A61AFE
3129,Queens Plaza North & Crescent St,40.75110165,-73.94073717,2,5,#2ECF51
3132,E 59 St & Madison Ave,40.76350532,-73.97109243,2,1,#A54987
3134,3 Ave & E 62 St,40.76312584,-73.96526895,4,2,#F6094B
3135,E 75 St & 3 Ave,40.77112927,-73.95772297,4,6,#56F956
3136,5 Ave & E 63 St,40.76650452,-73.97147595,4,0,#C46F90
3137,5 Ave & E 73 St,40.77282817,-73.96685276,2,1,#3D6225
3139,E 72 St & Park Ave,40.77122923,-73.96432627,4,3,#A6A4E1
3140,1 Ave & E 78 St,40.77140426,-73.9535166,4,2,#15871D
3141,1 Ave & E 68 St,40.76500525,-73.95818491,14,11,#DA28B7
3142,1 Ave & E 62 St,40.7612274,-73.96094022,8,10,#7E2DC0
3143,5 Ave & E 78 St,40.7768286344,-73.9638876915,2,0,#1C78E4
3144,E 81 St & Park Ave,40.77677702,-73.9590097,0,3,#BB9913
3145,E 84 St & Park Ave,40.77862688,-73.95772073,3,2,#EDE2F1
3146,E 81 St & 3 Ave,40.77573034,-73.9567526,2,5,#9127A1
3147,E 85 St & 3 Ave,40.77801203,-73.95407149,3,3,#889758
3148,E 84 St & 1 Ave,40.77565541,-73.95068615,5,2,#BC08A6
3150,E 85 St & York Ave,40.77536905,-73.94803392,3,9,#AF8A77
3155,Lexington Ave & E 63 St,40.76440023,-73.96648977,5,2,#AC78D1
3156,E 72 St & York Ave,40.76663814,-73.95348296,7,7,#504A8B
3157,East End Ave & E 86 St,40.77518615,-73.94446054,0,2,#EC2324
3158,W 63 St & Broadway,40.77163851,-73.98261428,6,8,#509CFF
3159,W 67 St & Broadway,40.77492513,-73.98266566,3,3,#294E6C
3160,Central Park West & W 76 St,40.77896784,-73.97374737,3,2,#0A9242
3161,W 76 St & Columbus Ave,40.7801839724,-73.9772853255,0,4,#3DE6C1
3162,W 78 St & Broadway,40.78339981,-73.98093133,3,4,#48E4A2
3164,Columbus Ave & W 72 St,40.7770575,-73.97898475,7,9,#CDBEE2
3165,Central Park West & W 72 St,40.7757937668,-73.9762057364,1,1,#4A6BCE
3166,Riverside Dr & W 72 St,40.7805779901,-73.9856243134,1,3,#2D1FEB
3167,Amsterdam Ave & W 73 St,40.7796680901,-73.9809304476,14,7,#1CDDD8
3168,Central Park West & W 85 St,40.78472675,-73.96961715,3,2,#BE69D3
3169,Riverside Dr & W 82 St,40.78720869,-73.98128127,0,5,#F0DCC8
3170,W 84 St & Columbus Ave,40.78499979,-73.97283406,5,3,#939FC7
3171,Amsterdam Ave & W 82 St,40.78524672,-73.97667321,0,6,#4C5C7A
3172,W 74 St & Columbus Ave,40.7785669,-73.97754961,3,2,#1D6011
3173,Riverside Blvd & W 67 St,40.7775070275,-73.9888858795,0,3,#C0385E
3175,W 70 St & Amsterdam Ave,40.77748046,-73.98288594,7,8,#761005
3176,W 64 St & West End Ave,40.77452835,-73.98753759,4,5,#799A0C
3177,W 84 St & Broadway,40.7867947,-73.977112,5,5,#061F60
3178,Riverside Dr & W 78 St,40.78414472,-73.98362492,1,3,#6FEC59
3221,47 Ave & 31 St,40.743,-73.93561,0,2,#3FC7B8
3222,Hanson Pl & St Felix St,40.6851595999,-73.9771136642,5,4,#FE7E13
3223,E 55 St & 3 Ave,40.7589965596,-73.9686539769,3,1,#DF2532
3224,W 13 St & Hudson St,40.739973541,-74.005138725,5,18,#617DFC
3226,W 82 St & Central Park West,40.78275,-73.97137,4,5,#340290
3229,Marcy Ave & MacDonough St,40.6806176846,-73.946249485,1,0,#19C922
3231,E 67 St & Park Ave,40.7678008015,-73.9659208059,4,3,#552754
3232,Bond St & Fulton St,40.6896218879,-73.9830426872,0,2,#EF29FA
3233,E 48 St & 5 Ave,40.7572456791,-73.9780591428,2,1,#3E2541
3234,E 40 St & Madison Ave,40.7515936845,-73.9804315567,3,4,#801AAF
3235,E 41 St & Madison Ave,40.7521652806,-73.979921937,3,5,#7351F5
