station_id,name,lat,lon,bikes_out,bikes_in,color
79,Franklin St & W Broadway,40.71911552,-74.00666661,1,1,#71FD59
82,St James Pl & Pearl St,40.71117416,-74.00016545,1,0,#6DF904
116,W 17 St & 8 Ave,40.74177603,-74.00149746,2,1,#861AB5
147,Greenwich St & Warren St,40.71542197,-74.01121978,0,1,#869B8C
173,Broadway & W 49 St,40.76064679,-73.98442659,0,1,#19DE45
174,E 25 St & 1 Ave,40.7381765,-73.97738662,0,2,#EB36ED
195,Liberty St & Broadway,40.70905623,-74.01043382,1,0,#E83B5A
223,W 13 St & 7 Ave,40.73781509,-73.99994661,1,1,#93FA31
224,Spruce St & Nassau St,40.71146364,-74.00552427,0,1,#6C56AA
228,E 48 St & 3 Ave,40.7546011,-73.97187886,1,0,#39F532
236,St Marks Pl & 2 Ave,40.7284186,-73.98713956,0,1,#184E47
237,E 11 St & 2 Ave,40.73047309,-73.98672378,1,0,#78B123
239,Willoughby St & Fleet St,40.69196566,-73.9813018,1,0,#4CEC43
250,Lafayette St & Jersey St,40.72456089,-73.99565293,1,0,#C1976C
251,Mott St & Prince St,40.72317958,-73.99480012,2,0,#0B29ED
259,South St & Whitehall St,40.70122128,-74.01234218,0,1,#138DA8
261,Johnson St & Gold St,40.69474881,-73.98362464,1,0,#D3DCA2
264,Maiden Ln & Pearl St,40.70706456,-74.00731853,0,1,#F3A30B
265,Stanton St & Chrystie St,40.72229346,-73.99147535,1,1,#97791D
268,Howard St & Centre St,40.71910537,-73.99973337,0,1,#3ADD68
274,Lafayette Ave & Fort Greene Pl,40.68691865,-73.976682,1,1,#395ABD
281,Grand Army Plaza & Central Park S,40.7643971,-73.97371465,1,0,#FF2240
284,Greenwich Ave & 8 Ave,40.7390169121,-74.0026376103,1,2,#A8C1AD
290,2 Ave & E 58 St,40.76020258,-73.96478473,1,0,#A16F8D
293,Lafayette St & E 8 St,40.73028666,-73.9907647,3,3,#DCFE77
296,Division St & Bowery,40.71413089,-73.9970468,0,1,#D46B94
297,E 15 St & 3 Ave,40.734232,-73.986923,1,1,#21D27B
300,Shevchenko Pl & E 7 St,40.728145,-73.990214,0,1,#391D6D
301,E 2 St & Avenue B,40.72217444,-73.98368779,1,0,#B78EF2
302,Avenue D & E 3 St,40.72082834,-73.97793172,0,1,#8CF8CA
305,E 58 St & 3 Ave,40.76095756,-73.96724467,0,2,#F73F42
307,Canal St & Rutgers St,40.71427487,-73.98990025,1,0,#58B7FF
309,Murray St & West St,40.7149787,-74.013012,0,1,#08B4B1
310,State St & Smith St,40.68926942,-73.98912867,0,1,#3C6329
311,Norfolk St & Broome St,40.7172274,-73.98802084,1,0,#398359
312,Allen St & E Houston St,40.722055,-73.989111,1,1,#8B3AA4
326,E 11 St & 1 Ave,40.72953837,-73.98426726,0,1,#C95CC1
327,Vesey Pl & River Terrace,40.7153379,-74.01658354,0,1,#9B6BDE
328,Watts St & Greenwich St,40.72405549,-74.00965965,0,1,#C59EEE
329,Greenwich St & N Moore St,40.72043411,-74.01020609,1,0,#DD7BF9
330,Reade St & Broadway,40.71450451,-74.00562789,1,0,#3F4A64
336,Sullivan St & Washington Sq,40.73047747,-73.99906065,2,1,#86BDE2
345,W 13 St & 6 Ave,40.73649403,-73.99704374,0,2,#E732B2
346,Bank St & Hudson St,40.73652889,-74.00618026,2,0,#3C0AED
348,W Broadway & Spring St,40.72490985,-74.00154702,1,0,#EA971D
353,S Portland Ave & Hanson Pl,40.68539567,-73.97431458,1,0,#A61C3F
356,Bialystoker Pl & Delancey St,40.71622644,-73.98261206,1,1,#8566FD
357,E 11 St & Broadway,40.73261787,-73.99158043,1,0,#BD07C4
358,Christopher St & Greenwich St,40.73291553,-74.00711384,0,1,#FC5841
361,Allen St & Hester St,40.71605866,-73.99190759,1,0,#77BD4A
375,Mercer St & Bleecker St,40.72679454,-73.99695094,0,1,#A17205
377,6 Ave & Canal St,40.72243797,-74.00566443,1,0,#29B46F
379,W 31 St & 7 Ave,40.749156,-73.9916,1,0,#6CDFD4
380,W 4 St & 7 Ave S,40.73401143,-74.00293877,1,1,#AFE8A7
388,W 26 St & 10 Ave,40.749717753,-74.002950346,1,0,#7A02EE
393,E 5 St & Avenue C,40.72299208,-73.97995466,2,2,#845ED1
396,Lefferts Pl & Franklin Ave,40.680342423,-73.9557689392,0,1,#69E651
400,Pitt St & Stanton St,40.71926081,-73.98178024,0,1,#01D247
401,Allen St & Rivington St,40.72019576,-73.98997825,0,1,#60C1AB
408,Market St & Cherry St,40.71076228,-73.99400398,0,1,#F383C9
410,Suffolk St & Stanton St,40.72066442,-73.98517977,0,1,#396D3B
411,E 6 St & Avenue D,40.72228087,-73.97668709,1,0,#60B4ED
412,Forsyth St & Canal St,40.7158155,-73.99422366,1,0,#4D5809
422,W 59 St & 10 Ave,40.770513,-73.988038,0,1,#ACC0E5
428,E 3 St & 1 Ave,40.72467721,-73.98783413,2,0,#7E7C58
430,York St & Jay St,40.7014851,-73.98656928,0,1,#76D7D2
432,E 7 St & Avenue A,40.72621788,-73.98379855,1,2,#8CF4CB
433,E 13 St & Avenue A,40.72955361,-73.98057249,0,1,#E04FEB
434,9 Ave & W 18 St,40.74317449,-74.00366443,1,0,#0E093E
439,E 4 St & 2 Ave,40.7262807,-73.98978041,1,1,#9E4FD2
445,E 10 St & Avenue A,40.72740794,-73.98142006,1,0,#78F074
447,8 Ave & W 52 St,40.76370739,-73.9851615,0,1,#DA828A
449,W 52 St & 9 Ave,40.76461837,-73.98789473,1,1,#EEE295
450,W 49 St & 8 Ave,40.76227205,-73.98788205,0,1,#828FDE
453,W 22 St & 8 Ave,40.74475148,-73.99915362,0,1,#14DDB0
454,E 51 St & 1 Ave,40.75455731,-73.96592976,0,1,#4BADFE
460,S 4 St & Wythe Ave,40.71285887,-73.96590294,0,1,#24838C
461,E 20 St & 2 Ave,40.73587678,-73.98205027,0,2,#B1B606
463,9 Ave & W 16 St,40.74206539,-74.00443172,0,1,#67CFA0
473,Rivington St & Chrystie St,40.72110063,-73.9919254,1,0,#7CE5D1
474,5 Ave & E 29 St,40.7451677,-73.98683077,0,1,#DABFA8
476,E 31 St & 3 Ave,40.74394314,-73.97966069,1,0,#CF1593
477,W 41 St & 8 Ave,40.75640548,-73.9900262,0,1,#7E2BAB
479,9 Ave & W 45 St,40.76019252,-73.9912551,2,1,#2A1E45
481,S 3 St & Bedford Ave,40.71260486,-73.96264403,2,0,#76CB81
483,E 12 St & 3 Ave,40.73223272,-73.98889957,1,3,#537AC9
487,E 20 St & FDR Drive,40.73314259,-73.97573881,0,1,#0B3E0B
488,W 39 St & 9 Ave,40.75645824,-73.99372222,0,1,#4A6602
489,10 Ave & W 28 St,40.75066386,-74.00176802,5,0,#711031
490,8 Ave & W 33 St,40.751551,-73.993934,1,1,#CA4BEE
491,E 24 St & Park Ave S,40.74096374,-73.98602213,0,1,#251184
494,W 26 St & 8 Ave,40.74734825,-73.99723551,1,1,#45D854
495,W 47 St & 10 Ave,40.76269882,-73.99301222,1,0,#2585F4
496,E 16 St & 5 Ave,40.73726186,-73.99238967,1,1,#7E02D5
499,Broadway & W 60 St,40.76915505,-73.98191841,1,0,#EBC93E
501,FDR Drive & E 35 St,40.744219,-73.97121214,1,0,#61182D
502,Henry St & Grand St,40.714215,-73.981346,1,0,#31DBB6
504,1 Ave & E 15 St,40.73221853,-73.98165557,2,1,#F72AE5
505,6 Ave & W 33 St,40.74901271,-73.98848395,4,0,#04DA69
508,W 46 St & 11 Ave,40.76341379,-73.99667444,2,0,#998C4B
512,W 29 St & 9 Ave,40.7500727,-73.99839279,2,2,#664642
519,Pershing Square North,40.751873,-73.977706,1,0,#4982D5
523,W 38 St & 8 Ave,40.75466591,-73.99138152,1,0,#E2E47E
526,E 33 St & 5 Ave,40.74765947,-73.98490707,0,1,#3E1182
529,W 42 St & 8 Ave,40.7575699,-73.99098507,0,2,#EE27C4
531,Forsyth St & Broome St,40.71893904,-73.99266288,1,2,#557F34
532,S 5 Pl & S 4 St,40.710451,-73.960876,1,1,#3A74E8
533,Broadway & W 39 St,40.75299641,-73.98721619,1,0,#3064FE
534,Water - Whitehall Plaza,40.70255065,-74.0127234,0,3,#37CA63
539,Metropolitan Ave & Bedford Ave,40.71534825,-73.96024116,1,0,#F94EB5
545,E 23 St & 1 Ave,40.736502,-73.97809472,0,1,#BFD80B
2002,Wythe Ave & Metropolitan Ave,40.716887,-73.963198,1,3,#B6F2D5
2006,Central Park S & 6 Ave,40.76590936,-73.97634151,0,1,#338109
2009,Catherine St & Monroe St,40.71117444,-73.99682619,0,1,#C72590
2010,Grand St & Greene St,40.72165481,-74.00234737,0,1,#2F2690
2012,E 27 St & 1 Ave,40.739445,-73.976806,0,1,#04E80C
2021,W 45 St & 8 Ave,40.75929124,-73.98859651,2,0,#F91125
3002,South End Ave & Liberty St,40.711512,-74.015756,1,0,#897DFA
3079,Leonard St & Grand St,40.71103537,-73.94714303,0,1,#8436E0
3080,S 4 St & Rodney St,40.70934,-73.95608,1,0,#24FE8E
3082,Hope St & Union Ave,40.71167351,-73.95141312,2,0,#8FEB9E
3086,Graham Ave & Conselyea St,40.715143,-73.944507,1,1,#F28135
3087,Metropolitan Ave & Meeker Ave,40.71413311,-73.95234386,2,0,#DF520A
3090,N 8 St & Driggs Ave,40.71774592,-73.95600096,0,1,#4F6129
3093,N 6 St & Bedford Ave,40.71745169,-73.95850939,0,1,#24CC5B
3097,N Henry St & Richardson St,40.71921585,-73.9424469,0,1,#E4EBC4
3103,N 11 St & Wythe Ave,40.72153267,-73.95782357,1,0,#89917B
3109,Banker St & Meserole Ave,40.72606,-73.95621,1,0,#9D816C
3112,Milton St & Franklin St,40.72906,-73.95779,0,1,#F535D7
3113,Greenpoint Ave & Manhattan Ave,40.73026,-73.95394,0,1,#F94294
3118,McGuinness Blvd & Eagle St,40.73555,-73.95284,1,1,#5BD3CF
3120,Center BlvdÂ & Borden Ave,40.74161,-73.96044,1,1,#A76DC1
3126,44 Dr & Jackson Ave,40.74718234,-73.9432635,0,1,#6C0857
3134,3 Ave & E 62 St,40.76312584,-73.96526895,1,0,#E1B543
3140,1 Ave & E 78 St,40.77140426,-73.9535166,0,1,#0D8991
3141,1 Ave & E 68 St,40.76500525,-73.95818491,2,1,#1AD3AF
3142,1 Ave & E 62 St,40.7612274,-73.96094022,1,2,#7AB602
3146,E 81 St & 3 Ave,40.77573034,-73.9567526,0,1,#C97300
3162,W 78 St & Broadway,40.78339981,-73.98093133,1,0,#F6257E
3164,Columbus Ave & W 72 St,40.7770575,-73.97898475,0,1,#B2910D
3170,W 84 St & Columbus Ave,40.78499979,-73.97283406,1,1,#1583FF
3176,W 64 St & West End Ave,40.77452835,-73.98753759,1,0,#B8E6EF
3224,W 13 St & Hudson St,40.739973541,-74.005138725,1,1,#218FA6
3226,W 82 St & Central Park West,40.78275,-73.97137,0,1,#B7244C
3231,E 67 St & Park Ave,40.7678008015,-73.9659208059,2,0,#E506D6
