station_id,name,lat,lon,bikes_out,bikes_in,color
79,Franklin St & W Broadway,40.71911552,-74.00666661,0,2,#50067D
120,Lexington Ave & Classon Ave,40.68676793,-73.95928168,1,0,#C7782B
127,Barrow St & Hudson St,40.73172428,-74.00674436,1,3,#AFDADC
128,MacDougal St & Prince St,40.72710258,-74.00297088,3,0,#383CFB
147,Greenwich St & Warren St,40.71542197,-74.01121978,3,0,#2A150A
151,Cleveland Pl & Spring St,40.7221037867,-73.9972490072,1,1,#337C7C
157,Henry St & Atlantic Ave,40.69089272,-73.99612349,0,1,#058A73
160,E 37 St & Lexington Ave,40.748238,-73.978311,2,0,#232FEE
164,E 47 St & 2 Ave,40.75323098,-73.97032517,1,0,#EBC106
168,W 18 St & 6 Ave,40.73971301,-73.99456405,1,1,#9E2EF2
173,Broadway & W 49 St,40.76064679,-73.98442659,2,1,#C219CF
174,E 25 St & 1 Ave,40.7381765,-73.97738662,0,3,#57BC21
229,Great Jones St,40.72743423,-73.99379025,1,1,#102465
233,Joralemon St & Adams St,40.69246277,-73.98963911,0,1,#AAE805
236,St Marks Pl & 2 Ave,40.7284186,-73.98713956,0,1,#A55F26
237,E 11 St & 2 Ave,40.73047309,-73.98672378,2,2,#49508D
238,Bank St & Washington St,40.7361967,-74.00859207,1,0,#BB7ADC
239,Willoughby St & Fleet St,40.69196566,-73.9813018,1,0,#2089A1
243,Fulton St & Rockwell Pl,40.688226,-73.979382,0,3,#5E74DA
244,Willoughby Ave & Hall St,40.69196035,-73.96536851,1,1,#D1F6DB
251,Mott St & Prince St,40.72317958,-73.99480012,1,1,#44F33F
252,MacDougal St & Washington Sq,40.73226398,-73.99852205,1,1,#F2B91F
263,Elizabeth St & Hester St,40.71729,-73.996375,0,1,#5F2703
267,Broadway & W 36 St,40.75097711,-73.98765428,1,1,#2736B3
268,Howard St & Centre St,40.71910537,-73.99973337,2,1,#ACC688
280,E 10 St & 5 Ave,40.73331967,-73.99510132,0,1,#FD4832
281,Grand Army Plaza & Central Park S,40.7643971,-73.97371465,0,1,#0B6674
284,Greenwich Ave & 8 Ave,40.7390169121,-74.0026376103,0,1,#49951A
285,Broadway & E 14 St,40.73454567,-73.99074142,1,3,#71C0D8
290,2 Ave & E 58 St,40.76020258,-73.96478473,1,0,#7D992A
291,Madison St & Montgomery St,40.713126,-73.984844,1,2,#C4A359
293,Lafayette St & E 8 St,40.73028666,-73.9907647,1,1,#7C2C2D
295,Pike St & E Broadway,40.71406667,-73.99293911,0,1,#E54A56
296,Division St & Bowery,40.71413089,-73.9970468,2,1,#713DEB
302,Avenue D & E 3 St,40.72082834,-73.97793172,0,1,#B882F9
304,Broadway & Battery Pl,40.70463334,-74.01361706,1,0,#E89652
305,E 58 St & 3 Ave,40.76095756,-73.96724467,1,0,#A732FB
312,Allen St & E Houston St,40.722055,-73.989111,0,1,#241FD6
317,E 6 St & Avenue B,40.72453734,-73.98185424,1,1,#121929
318,E 43 St & Vanderbilt Ave,40.75320159,-73.9779874,1,2,#C54192
324,DeKalb Ave & Hudson Ave,40.689888,-73.981013,1,0,#1C33EC
325,E 19 St & 3 Ave,40.73624527,-73.98473765,2,0,#7DCC3F
327,Vesey Pl & River Terrace,40.7153379,-74.01658354,0,2,#636918
334,W 20 St & 7 Ave,40.74238787,-73.99726235,0,2,#0F92C8
336,Sullivan St & Washington Sq,40.73047747,-73.99906065,0,2,#E9EB8D
337,Old Slip & Front St,40.7037992,-74.00838676,0,1,#7B9469
340,Madison St & Clinton St,40.71269042,-73.98776323,2,0,#1D7ACA
341,Stanton St & Mangin St,40.71782143,-73.97628939,0,2,#B7E78A
347,Greenwich St & W Houston St,40.728846,-74.008591,0,1,#183E5A
352,W 56 St & 6 Ave,40.76340613,-73.97722479,1,0,#349371
355,Bayard St & Baxter St,40.71602118,-73.99974372,0,1,#0DFAD9
358,Christopher St & Greenwich St,40.73291553,-74.00711384,2,0,#2606C0
361,Allen St & Hester St,40.71605866,-73.99190759,2,3,#A23829
363,West Thames St,40.70834698,-74.01713445,0,1,#1D7C33
366,Clinton Ave & Myrtle Ave,40.693261,-73.968896,0,2,#3CDCC6
367,E 53 St & Lexington Ave,40.75828065,-73.97069431,1,0,#997178
368,Carmine St & 6 Ave,40.73038599,-74.00214988,3,0,#2BF41C
373,Willoughby Ave & Walworth St,40.69331716,-73.95381995,0,1,#69C0D8
379,W 31 St & 7 Ave,40.749156,-73.9916,1,0,#0AD267
382,University Pl & E 14 St,40.73492695,-73.99200509,3,1,#F82917
383,Greenwich Ave & Charles St,40.735238,-74.000271,2,0,#0C31F1
384,Fulton St & Washington Ave,40.683048,-73.964915,3,1,#A6522D
385,E 55 St & 2 Ave,40.75797322,-73.96603308,0,2,#C82195
387,Centre St & Chambers St,40.71273266,-74.0046073,1,0,#3036C4
391,Clark St & Henry St,40.69760127,-73.99344559,1,0,#F04488
393,E 5 St & Avenue C,40.72299208,-73.97995466,0,1,#FA070E
394,E 9 St & Avenue C,40.72521311,-73.97768752,0,1,#02254B
399,Lafayette Ave & St James Pl,40.68851534,-73.9647628,1,1,#E9B466
402,Broadway & E 22 St,40.7403432,-73.98955109,2,0,#BB6B2C
404,9 Ave & W 14 St,40.7405826,-74.00550867,1,1,#276163
410,Suffolk St & Stanton St,40.72066442,-73.98517977,0,4,#A97FAD
411,E 6 St & Avenue D,40.72228087,-73.97668709,1,0,#A30F68
412,Forsyth St & Canal St,40.7158155,-73.99422366,1,2,#66C290
415,Pearl St & Hanover Square,40.7047177,-74.00926027,1,0,#F75C56
419,Carlton Ave & Park Ave,40.69580705,-73.97355569,1,1,#F1999B
422,W 59 St & 10 Ave,40.770513,-73.988038,0,1,#662ABB
426,West St & Chambers St,40.71754834,-74.01322069,0,1,#BEDDED
428,E 3 St & 1 Ave,40.72467721,-73.98783413,1,2,#13DBCB
432,E 7 St & Avenue A,40.72621788,-73.98379855,2,0,#0F88E5
433,E 13 St & Avenue A,40.72955361,-73.98057249,2,1,#F898D7
434,9 Ave & W 18 St,40.74317449,-74.00366443,1,0,#4ADA72
438,St Marks Pl & 1 Ave,40.72779126,-73.98564945,2,1,#F7D777
439,E 4 St & 2 Ave,40.7262807,-73.98978041,1,1,#146456
441,E 52 St & 2 Ave,40.756014,-73.967416,1,1,#F7516A
442,W 27 St & 7 Ave,40.746647,-73.993915,1,0,#B52DB1
444,Broadway & W 24 St,40.7423543,-73.98915076,3,0,#807E4A
445,E 10 St & Avenue A,40.72740794,-73.98142006,0,1,#52D317
446,W 24 St & 7 Ave,40.74487634,-73.99529885,0,1,#8FDAC9
447,8 Ave & W 52 St,40.76370739,-73.9851615,0,2,#BC1B9A
448,W 37 St & 10 Ave,40.75660359,-73.9979009,1,0,#DA5A4E
450,W 49 St & 8 Ave,40.76227205,-73.98788205,3,1,#9AD406
457,Broadway & W 58 St,40.76695317,-73.98169333,0,1,#9AC3A7
458,11 Ave & W 27 St,40.751396,-74.005226,0,1,#51B3FA
461,E 20 St & 2 Ave,40.73587678,-73.98205027,1,0,#A5CE49
465,Broadway & W 41 St,40.75513557,-73.98658032,2,0,#61A7E5
466,W 25 St & 6 Ave,40.74395411,-73.99144871,1,1,#E509CD
470,W 20 St & 8 Ave,40.74345335,-74.00004031,1,1,#F3429D
471,Grand St & Havemeyer St,40.71286844,-73.95698119,1,0,#9AEFA5
472,E 32 St & Park Ave,40.7457121,-73.98194829,1,0,#CC39E6
473,Rivington St & Chrystie St,40.72110063,-73.9919254,0,1,#65D639
475,E 16 St & Irving Pl,40.73524276,-73.98758561,0,1,#CD5562
476,E 31 St & 3 Ave,40.74394314,-73.97966069,0,2,#7D59E5
478,11 Ave & W 41 St,40.76030096,-73.99884222,1,0,#139AFC
479,9 Ave & W 45 St,40.76019252,-73.9912551,0,2,#61ED03
480,W 53 St & 10 Ave,40.76669671,-73.99061728,0,2,#468033
482,W 15 St & 7 Ave,40.73935542,-73.99931783,2,1,#176578
483,E 12 St & 3 Ave,40.73223272,-73.98889957,0,1,#802B75
489,10 Ave & W 28 St,40.75066386,-74.00176802,1,2,#884939
490,8 Ave & W 33 St,40.751551,-73.993934,1,1,#68097D
492,W 33 St & 7 Ave,40.75019995,-73.99093085,2,1,#27BEF4
494,W 26 St & 8 Ave,40.74734825,-73.99723551,1,1,#E58EC9
495,W 47 St & 10 Ave,40.76269882,-73.99301222,1,2,#ED9C4C
497,E 17 St & Broadway,40.73704984,-73.99009296,1,0,#DAFBB8
498,Broadway & W 32 St,40.74854862,-73.98808416,1,1,#B59564
502,Henry St & Grand St,40.714215,-73.981346,0,1,#28EDA8
503,E 20 St & Park Ave,40.73827428,-73.98751968,1,1,#F9AFE1
504,1 Ave & E 15 St,40.73221853,-73.98165557,2,2,#AF8686
507,E 25 St & 2 Ave,40.73912601,-73.97973776,4,0,#580255
508,W 46 St & 11 Ave,40.76341379,-73.99667444,0,1,#301CBB
509,9 Ave & W 22 St,40.7454973,-74.00197139,0,1,#DC4E74
510,W 51 St & 6 Ave,40.7606597,-73.98042047,0,1,#7F89A5
511,E 14 St & Avenue B,40.72938685,-73.97772429,1,2,#087A99
513,W 56 St & 10 Ave,40.768254,-73.988639,1,0,#EFD4DA
514,12 Ave & W 40 St,40.76087502,-74.00277668,0,1,#490A30
515,W 43 St & 10 Ave,40.76009437,-73.99461843,1,2,#DB8384
518,E 39 St & 2 Ave,40.74780373,-73.9734419,2,2,#39FECF
521,8 Ave & W 31 St,40.7509673487,-73.9944420755,3,1,#F5CE42
522,E 51 St & Lexington Ave,40.75714758,-73.97207836,0,1,#65050D
523,W 38 St & 8 Ave,40.75466591,-73.99138152,1,0,#D5145A
524,W 43 St & 6 Ave,40.75527307,-73.98316936,1,0,#B25A72
527,E 33 St & 2 Ave,40.744023,-73.976056,3,0,#3F4FFB
528,2 Ave & E 31 St,40.74290902,-73.97706058,1,0,#5B1D2A
529,W 42 St & 8 Ave,40.7575699,-73.99098507,2,1,#92F54D
531,Forsyth St & Broome St,40.71893904,-73.99266288,1,1,#F08202
536,1 Ave & E 30 St,40.74144387,-73.97536082,2,0,#055765
537,Lexington Ave & E 24 St,40.74025878,-73.98409214,1,2,#7B8339
540,Lexington Ave & E 29 St,40.7431155538,-73.9821535349,0,3,#53FDFC
2003,1 Ave & E 18 St,40.733812192,-73.9805442095,1,2,#1C20D9
2010,Grand St & Greene St,40.72165481,-74.00234737,1,0,#BFED3B
2021,W 45 St & 8 Ave,40.75929124,-73.98859651,1,0,#CEBF17
